name,latitude,longitude,subcategories/0,numberOfRooms,hotelClass,num_amenities,ceilhotelClass,energy_consumption,usable_area
Red Planet Bangkok Asoke,13.735791,100.56007,Hotel,130.0,3.0,25,3.0,2977.6623002487,4290.476998944412
The Berkeley Hotel Pratunam,13.750167,100.54279,Hotel,788.0,5.0,53,5.0,19818.267709980188,33039.911577066334
Novotel Bangkok Silom Road,13.723036,100.51848,Hotel,216.0,4.0,55,4.0,5422.208924770293,7260.545926247939
Grande Centre Point Sukhumvit 55,13.731668,100.58218,Hotel,442.0,5.0,50,5.0,10452.404601413069,17116.67142947545
Eastin Grand Hotel Sathorn,13.719151,100.52193,Hotel,390.0,5.0,63,5.0,8447.860110516012,15519.404054604927
Chatrium Hotel Riverside Bangkok,13.71062,100.51017,Hotel,320.0,5.0,124,5.0,7347.741887750488,11921.757650031665
Rembrandt Hotel Bangkok,13.732422,100.56283,Hotel,407.0,0.0,62,0.0,8583.599934504366,8060.124119127849
The Okura Prestige Bangkok,13.742734,100.547844,Hotel,240.0,5.0,82,5.0,6307.259163013168,9802.718988670273
Lancaster Bangkok,13.748716,100.56734,Hotel,231.0,5.0,140,5.0,6074.152025281873,8977.50107351952
Akara Hotel,13.75611,100.54131,Hotel,82.0,4.0,67,4.0,2294.9603063889663,3049.0848859534376
"Sheraton Grande Sukhumvit, a Luxury Collection Hotel, Bangkok",13.7375,100.559296,Hotel,420.0,5.0,90,5.0,8951.666447233105,15570.957476697711
Centre Point Hotel Silom,13.719808,100.515274,Hotel,214.0,4.0,64,4.0,5697.725501587345,8355.5218687445
La Petite Salil Sukhumvit Thonglor 1,13.727382,100.578835,Hotel,122.0,4.0,80,4.0,3352.910518616947,4594.472932649117
Avani+ Riverside Bangkok Hotel,13.704895,100.49135,Hotel,248.0,4.5,65,5.0,5601.9088076686185,9517.898962258612
Grande Centre Point Terminal 21,13.737092,100.56041,Hotel,498.0,5.0,56,5.0,10709.117622528764,19921.54573708681
Bangkok Marriott Hotel Sukhumvit,13.723425,100.580444,Hotel,275.0,5.0,104,5.0,6318.348824317135,11101.976223516098
The Sukosol Hotel,13.757689,100.53616,Hotel,500.0,5.0,71,5.0,11117.16145374187,20754.334286008394
The Quarter Phromphong By UHG,13.737506,100.56647,Hotel,79.0,4.0,47,4.0,2036.4279561529468,2795.221852828495
Solaria Nishitetsu Hotel Bangkok,13.737016,100.56006,Hotel,263.0,4.0,12,4.0,5894.039274425943,9205.409727060214
The Park Nine Suvarnabhumi,13.722481,100.724,Hotel,120.0,4.0,56,4.0,2857.883344450282,4444.552776884781
The Quarter Ari by UHG,13.784577,100.54659,Hotel,180.0,4.0,50,4.0,4425.2223917193,6467.860123362994
La Petite Salil Sukhumvit 11,13.743214,100.5565,Hotel,84.0,4.0,70,4.0,2153.4851654939475,3016.7758727176038
Hotel Clover Asoke,13.734478,100.5611,Hotel,95.0,4.0,54,4.0,2314.4599418320504,3576.7070565796794
Banyan Tree Bangkok,13.723922,100.5396,Hotel,327.0,5.0,117,5.0,7813.441178970019,13782.606022224276
JC Kevin Sathorn Bangkok Hotel,13.716379,100.531586,Hotel,310.0,5.0,48,5.0,7166.572686098453,12570.826044821028
Grande Centre Point Hotel Ratchadamri,13.741611,100.54095,Hotel,497.0,5.0,71,5.0,12292.679597792867,19564.7818030696
Rambuttri Village Inn & Plaza,13.761519,100.4962,Hotel,150.0,2.0,43,2.0,3607.533996099487,4477.468355358232
The Cottage Suvarnabhumi,13.720968,100.7241,Hotel,104.0,3.0,51,3.0,2651.239169136095,3349.2837040313866
Riva Arun Bangkok,13.743736,100.49214,Bed and Breakfast,25.0,4.0,38,4.0,698.4849955244392,998.7129962305364
Eastin Grand Hotel Phayathai,13.756485,100.5329,Hotel,494.0,0.0,53,0.0,11655.475059556318,11481.523372636733
The Quarter Silom by UHG,13.728482,100.53036,Hotel,141.0,4.0,55,4.0,3251.7515733739338,5436.799550955939
Anantara Riverside Bangkok Resort,13.704306,100.4923,Hotel,376.0,5.0,107,5.0,8271.63789027958,15835.319315323295
Centara Grand at Central Plaza Ladprao Bangkok,13.817944,100.56001,Hotel,565.0,5.0,57,5.0,14312.006806819365,23182.577957707847
Arck Hotel,13.751325,100.53846,Hotel,77.0,0.0,0,0.0,1911.7683327337054,1664.9780596975731
Centre Point Hotel Chidlom,13.739051,100.54308,Hotel,200.0,4.0,41,4.0,5017.925054516317,7516.840119201399
Bangkok City Hotel,13.79014,100.542,Hotel,252.0,3.0,45,3.0,5661.8267842417645,8083.9431402352275
Siam Kempinski Hotel Bangkok,13.748258,100.53547,Hotel,397.0,0.0,99,0.0,8659.550026959596,9298.51216801172
Prince Palace Hotel,13.751,100.5026,Hotel,744.0,3.0,50,3.0,17687.844705945106,23430.975697909922
Solitaire Bangkok,13.744979,100.557175,Hotel,319.0,4.0,52,4.0,7368.82352181957,12880.266721014561
The Quarter Hualamphong By UHG,13.737516,100.51571,Hotel,150.0,4.0,43,4.0,3329.55749017341,5988.802666445125
Grand 5 Hotel & Plaza Sukhumvit Bangkok,13.741756,100.55406,Hotel,161.0,4.0,32,4.0,3790.037763845048,6111.7883269501945
Novotel Bangkok Platinum Pratunam,13.749713,100.54052,Hotel,288.0,4.0,91,4.0,6296.71428385093,11009.459141115673
Anantara Siam Bangkok Hotel,13.740948,100.54027,Hotel,354.0,5.0,83,5.0,9173.267226305648,13909.955574221338
Shama Lakeview Asoke Bangkok,13.729861,100.56138,Hotel,429.0,4.0,61,4.0,9488.229924279538,15290.268281832736
Ariyasomvilla,13.747884,100.5517,Hotel,24.0,4.0,54,4.0,846.1236490332382,812.1193659803495
ASAI Bangkok Chinatown,13.741491,100.51123,Hotel,224.0,2.0,57,2.0,5166.202346520916,6487.164759924909
Amari Watergate Bangkok,13.751057,100.54022,Hotel,564.0,5.0,65,5.0,13133.52479582659,23830.60865839157
Asia Hotel Bangkok,13.751436,100.53115,Hotel,600.0,3.0,44,3.0,12790.158064323476,21270.86240952373
137 Pillars Suites & Residences Bangkok,13.737492,100.57187,Hotel,213.0,5.0,66,5.0,5655.979482695105,8957.019993969237
Nana Hotel,13.74147,100.55293,Hotel,334.0,3.0,43,3.0,8229.94000995201,10007.16749745011
The Salil Hotel Riverside Bangkok,13.70783,100.50742,Hotel,235.0,5.0,67,5.0,6197.624658358457,8992.757554435928
Amari Don Muang Airport Bangkok,13.921018,100.60034,Hotel,429.0,4.0,69,4.0,10851.481856085573,14366.891076807713
Shangri-La Bangkok,13.720464,100.51375,Hotel,802.0,5.0,136,5.0,19170.990296117365,32136.064802021934
The Quart Ruamrudee by UHG,13.74457,100.5445,Hotel,150.0,4.0,71,4.0,4085.6950307395714,5733.7991998457555
The Salil Hotel Sukhumvit 57 - Thonglor,13.725057,100.58036,Hotel,130.0,4.5,59,5.0,2982.204942214289,5085.129683233376
Riva Surya Bangkok,13.762267,100.49308,Hotel,68.0,4.0,60,4.0,1738.265957298723,2314.965823497103
Hansar Bangkok Hotel,13.740058,100.54114,Hotel,94.0,5.0,76,5.0,2346.526900396733,3614.9998641637762
Millennium Hilton Bangkok,13.728845,100.51105,Hotel,533.0,5.0,94,5.0,12060.637765085801,21408.892484976423
Chatrium Residence Sathon Bangkok,13.702046,100.53755,Hotel,112.0,4.0,117,4.0,3140.694562083771,4288.83455184504
Carlton Hotel Bangkok Sukhumvit,13.734676,100.56416,Hotel,338.0,5.0,111,5.0,7868.902698705676,13613.094354389736
Villa Deva Resort And Hotel,13.722872,100.5447,Hotel,43.0,0.0,67,0.0,1423.3184066632693,948.3811798586502
Pathumwan Princess Hotel,13.743356,100.529785,Hotel,455.0,4.0,74,4.0,10314.115402720396,17498.74132261787
Red Planet Bangkok Surawong,13.728596,100.52708,Hotel,201.0,3.0,33,3.0,4487.487225151326,6035.697944978956
Gardina Asoke Hotel & Residence,13.729192,100.561714,Bed and Breakfast,72.0,4.0,87,4.0,2084.322380269387,2508.972383000058
"Sindhorn Midtown Hotel Bangkok, Vignette Collection",13.74135,100.543015,Hotel,344.0,4.0,98,4.0,7678.406917869133,12912.098181279085
Montien Hotel Surawong Bangkok,13.730781,100.53139,Hotel,475.0,5.0,83,5.0,11835.095849517205,19391.3185145698
The Landmark Bangkok Hotel,13.741245,100.55408,Hotel,399.0,5.0,69,5.0,8521.611055886344,16130.00023131013
Craftsman Bangkok,13.787664,100.5449,Hotel,70.0,3.0,28,3.0,1891.8391763112922,2212.4892100881634
Casa Vimaya Riverside,13.761892,100.49963,Hotel,50.0,3.5,31,4.0,1351.7052826288214,1903.4847754830291
Grand Tower Inn Sathon,13.720876,100.507385,Hotel,108.0,3.0,47,3.0,2510.0748390651725,3340.621026829015
Sukhumvit Suites Hotel,13.736164,100.56186,Hotel,73.0,3.0,58,3.0,1752.1311165928212,2496.8231606228937
The Quarter Saladaeng by UHG,13.725151,100.53877,Hotel,111.0,4.0,41,4.0,2907.0494171244277,3960.7089564688117
Evergreen Place Siam by UHG,13.749029,100.53121,Hotel,158.0,3.0,57,3.0,4045.164161435945,4946.592543388803
COMO Metropolitan Bangkok,13.723689,100.53929,Hotel,169.0,5.0,48,5.0,4260.727857790471,6799.8128885511915
The Quarter Ploenchit by UHG,13.73885,100.54929,Hotel,112.0,4.0,69,4.0,3028.045427416951,4175.608780537628
Golden Jade Suvarnabhumi,13.722864,100.73708,Hotel,86.0,3.0,54,3.0,2026.3511344712363,2738.881648886061
De Prime @ Rangnam Hotel,13.759444,100.54005,Hotel,142.0,4.0,38,4.0,3285.23756799105,5325.260563783299
Arnoma Grand Bangkok,13.746622,100.54092,Hotel,369.0,4.0,41,4.0,7805.574090079439,13236.473476629031
The Quarter Onnut by UHG,13.7002,100.60296,Hotel,79.0,4.0,18,4.0,2026.961252850556,2724.8591124335785
Ibis Bangkok Riverside,13.717735,100.50994,Hotel,266.0,3.0,50,3.0,6411.063350765737,8827.203696747105
Pinnacle Lumpinee Park Hotel,13.723688,100.54832,Hotel,179.0,3.0,50,3.0,4143.867298603982,5776.509281651346
Night Hotel Bangkok - Sukhumvit 15,13.740568,100.558685,Hotel,195.0,4.0,58,4.0,4258.07942962879,6848.741991137181
VELA Dhi GLOW Pratunam,13.751074,100.53817,Hotel,169.0,3.0,52,3.0,3914.34284969664,5621.976477059534
The Quarter Chaophraya by UHG,13.731532,100.50905,Hotel,244.0,4.0,36,4.0,5475.415737420719,9141.078404048729
Baiyoke Sky Hotel,13.754386,100.54036,Hotel,658.0,4.0,56,4.0,15874.438476985586,23791.314447880366
Siam@Siam Design Hotel Bangkok,13.747291,100.526955,Hotel,221.0,4.0,82,4.0,5554.61989560914,8249.386020228989
The Quarter Ladprao by UHG,13.812058,100.561844,Hotel,194.0,3.0,30,3.0,4892.32832507579,6195.676843960054
Galleria 12 Hotel Bangkok by Compass Hospitality,13.735191,100.55813,Hotel,164.0,4.0,35,4.0,3855.902389052257,5434.478280632142
Bangkok Marriott Hotel The Surawongse,13.727273,100.52227,Hotel,303.0,5.0,119,5.0,6864.055483736761,12048.176008178667
Royal Orchid Sheraton Hotel & Towers,13.729228,100.513664,Hotel,659.0,5.0,90,5.0,15999.90142699045,27742.463112008816
Lebua At State Tower,13.721506,100.516846,Hotel,179.0,5.0,123,5.0,4993.965743245878,7224.374299363059
Jasmine 59 Hotel,13.724365,100.58118,Hotel,270.0,4.0,0,4.0,6157.72421671882,10782.303948166422
Pullman Bangkok Hotel G,13.725763,100.52591,Hotel,469.0,5.0,80,5.0,11632.468312447214,20021.040077966063
Ibis Bangkok Sukhumvit 24,13.729213,100.56977,Hotel,300.0,3.0,28,3.0,6892.33509744524,9106.668604552227
Stay Hotel BKK,13.786574,100.57153,Hotel,134.0,3.5,34,4.0,3214.815103022561,5145.71883927609
Centara Grand at CentralWorld,13.747642,100.53834,Hotel,505.0,5.0,104,5.0,11755.795191754498,19548.69207028349
FuramaXclusive Asoke,13.740051,100.56155,Hotel,110.0,4.0,45,4.0,2470.3198610258773,4300.804644246384
Mandarin Hotel Managed by Centre Point,13.733123,100.52716,Hotel,367.0,4.0,82,4.0,8005.556748419624,13189.944739446564
Amara Bangkok,13.728886,100.5276,Hotel,250.0,4.0,54,4.0,5318.557953124512,9466.883626995945
Villa Bangkok Formerly Villa Phra Sumen Bangkok,13.759053,100.50323,Hotel,41.0,3.0,29,3.0,1109.9674041192973,1382.3684446999603
Travelodge Sukhumvit 11,13.744947,100.55748,Hotel,224.0,0.0,45,0.0,5075.616813082021,4946.272602319196
Ramada Plaza by Wyndham Bangkok Menam Riverside,13.708094,100.505844,Hotel,501.0,4.5,129,5.0,12051.267560016331,18729.197441614466
Grand Tower Inn Rama VI,13.789403,100.53758,Hotel,316.0,3.0,62,3.0,8103.1030019187665,9954.606839825668
Vince Hotel,13.7542,100.536,Hotel,238.0,4.0,94,4.0,5576.713134930264,8545.940064632896
Avani Sukhumvit Bangkok Hotel,13.705132,100.60152,Hotel,382.0,5.0,84,5.0,8853.52453294108,15146.611795540792
Chatrium Grand Bangkok,13.749856,100.5349,Hotel,582.0,5.0,99,5.0,14393.61196420329,23492.07413401111
Sindhorn Kempinski Hotel Bangkok,13.736904,100.54384,Hotel,274.0,5.0,100,5.0,6305.173877291546,11091.397938912241
Lemontea Hotel,13.753951,100.53759,Hotel,73.0,3.0,16,3.0,1573.4929722965617,2247.3248941806887
Fyn Hotel,13.76319,100.5387,Bed and Breakfast,49.0,3.0,19,3.0,1148.7031032953455,1485.2197834674837
Novotel Bangkok on Siam Square,13.744351,100.53479,Hotel,425.0,4.0,66,4.0,9218.272096118368,14232.01792713203
Nouvo City Hotel,13.762833,100.49934,Hotel,281.0,3.5,78,4.0,7332.312866420534,9956.152429813785
FX Hotel Metrolink Makkasan,13.749453,100.56313,Hotel,90.0,3.0,42,3.0,2390.1122644778848,2821.602709452407
Movenpick Hotel Sukhumvit 15 Bangkok,13.742571,100.5585,Hotel,363.0,5.0,103,5.0,9016.882320161152,16155.194990434748
The Journey Hotel,13.870599,100.55872,Bed and Breakfast,47.0,3.0,39,3.0,1347.7615776466735,1395.122806147854
Mercure Bangkok Makkasan,13.751399,100.55748,Hotel,180.0,4.0,56,4.0,4631.741952790895,7090.3730596348405
Grand Fortune Hotel Bangkok,13.75666,100.56461,Hotel,402.0,4.0,92,4.0,8913.578811188205,15444.413422400012
Hua Chang Heritage Hotel,13.748664,100.53099,Hotel,80.0,5.0,57,5.0,2243.0566697355976,3278.0729424444266
S31 Sukhumvit Hotel,13.733611,100.56587,Hotel,90.0,5.0,66,5.0,2425.0260443578486,3524.4112319397377
St. James Hotel,13.727728,100.56965,Hotel,78.0,3.0,26,3.0,2006.6968540781638,2804.9569694149222
Vib Best Western Sanam Pao,13.773081,100.542015,Hotel,91.0,4.0,24,4.0,2359.1036619686365,3207.5441186517783
Evergreen Laurel Hotel,13.723368,100.5339,Hotel,160.0,4.0,53,4.0,3749.1187296092553,5635.829320192188
The Siam,13.781107,100.50613,Hotel,39.0,5.0,60,5.0,1139.1657126797722,1628.7645951843842
U Sathorn Bangkok,13.7229,100.5472,Hotel,86.0,4.5,61,5.0,2165.018649280815,3618.7974370188836
Spenza Hotel,13.75419,100.53786,Hotel,61.0,3.0,38,3.0,1549.8922261048713,2112.2881215032025
Hotel Amber Sukhumvit 85,13.702409,100.6031,Hotel,142.0,3.0,37,3.0,3606.1596985413325,4418.139474508301
Hotel Royal Bangkok at Chinatown,13.7405,100.5099,Hotel,290.0,3.5,43,4.0,7294.167423202959,10394.141549263073
Away Bangkok Riverside Kene,13.711485,100.50336,Bed and Breakfast,169.0,4.0,83,4.0,3845.3340480447055,6037.31000775836
Royal View Resort,13.760861,100.539696,Hotel,105.0,3.0,52,3.0,2671.620454419999,3379.2858242068896
SO/ BANGKOK,13.7263,100.54316,Hotel,237.0,5.0,157,5.0,6148.590011706712,8906.396900117006
Jasmine Resort Hotel,13.7155,100.5915,Hotel,244.0,4.0,54,4.0,5466.511141834837,9097.475172596794
I Residence Hotel Silom,13.723561,100.5298,Hotel,110.0,3.0,46,3.0,2518.2403063925844,3986.693809521649
At Residence Suvarnabhumi,13.72131,100.73336,Specialty Lodging,100.0,3.0,54,3.0,2456.823519077005,3357.6534698438077
Hyatt Place Bangkok Sukhumvit,13.727787,100.56838,Hotel,222.0,4.0,50,4.0,5776.207681472465,8519.015430025129
NAP Hotel Bangkok,13.753338,100.53608,Bed and Breakfast,55.0,3.0,29,3.0,1346.9683355835562,1841.2429098875923
Tints of Blue Hotel,13.737073,100.563385,Bed and Breakfast,42.0,3.0,51,3.0,1213.3015825826822,1236.1125503451142
The Key Premier Sukhumvit Bangkok,13.743027,100.55527,Hotel,75.0,4.0,32,4.0,1950.991278211659,2514.2467385282116
The Peninsula Bangkok,13.723186,100.510254,Hotel,370.0,5.0,102,5.0,8672.735871832472,14495.355644683594
Picnic Hotel Bangkok,13.759911,100.540405,Hotel,161.0,3.0,55,3.0,4302.931613178082,5135.558517210965
Aira Hotel Bangkok,13.742592,100.556625,Hotel,255.0,4.0,0,4.0,6327.120301051192,8916.667069975641
"The Standard, Bangkok Mahanakhon",13.723734,100.528366,Hotel,155.0,5.0,89,5.0,3774.647801267264,6120.435385457383
Mii Hotel Srinakarin,13.692917,100.6447,Bed and Breakfast,79.0,4.0,49,4.0,2060.7865051411595,2860.8089409105064
Skyview Hotel Bangkok,13.729201,100.56911,Hotel,285.0,5.0,57,5.0,6465.152711116032,10881.41432914939
MUU Bangkok Hotel,13.730718,100.58178,Hotel,148.0,5.0,133,5.0,3862.8438405915063,5612.3611287182375
Davis Bangkok,13.721607,100.566086,Hotel,247.0,4.0,33,4.0,5152.765509179682,8711.813674602881
Grande Centre Point Ploenchit,13.742153,100.54716,Hotel,277.0,4.0,42,4.0,6631.095321593736,10137.366861453207
Grand Mercure Bangkok Atrium,13.747878,100.57004,Hotel,568.0,4.0,49,4.0,13051.689267979933,20619.089602902386
Don Muang Hotel,13.925687,100.59842,Hotel,100.0,3.0,43,3.0,2264.0350970884997,3225.7618075484843
KC Place Hotel Pratunam,13.754618,100.54119,Hotel,55.0,3.0,25,3.0,1325.829422966337,1912.6004098744272
Mode Sathorn Hotel,13.719734,100.52173,Hotel,201.0,4.0,59,4.0,5231.734534343426,7827.945674656125
ibis Styles Bangkok Silom Hotel,13.72685,100.532005,Hotel,264.0,3.5,32,4.0,5776.967871918871,9721.969343280747
Column Bangkok Hotel,13.7344,100.561,Specialty Lodging,218.0,4.0,67,4.0,4857.900473891948,7691.841439980931
Cross Vibe Bangkok Sukhumvit,13.704144,100.59907,Hotel,266.0,3.5,87,4.0,7135.846969398928,9995.373083399905
Sacha's Hotel Uno Bangkok,13.739489,100.56022,Hotel,56.0,3.0,40,3.0,1405.1143653334454,1830.5331868352985
The Continent Hotel Sukhumvit Bangkok by Compass Hospitality,13.736125,100.56196,Hotel,153.0,4.5,105,5.0,4203.887840925307,5615.414961357374
"Sukhumvit Park, Bangkok - Marriott Executive Apartments",13.724311,100.56692,Hotel,300.0,5.0,122,5.0,7820.634655756562,12473.757877489114
Tower Club At Lebua,13.722049,100.51688,Hotel,178.0,5.0,124,5.0,4431.321521080094,7425.699482470025
Grand China Bangkok,13.742561,100.50705,Hotel,146.0,4.0,61,4.0,3770.0247253668476,5147.378698390376
Bangkok 68,13.786252,100.56949,Hotel,232.0,3.0,20,3.0,5173.638844640058,7198.512271924465
sala rattanakosin Bangkok,13.745442,100.49094,Hotel,15.0,4.0,28,4.0,497.8538689597859,519.780468862985
Kimpton Maa-Lai Bangkok,13.734161,100.54029,Hotel,362.0,5.0,121,5.0,9000.003131481817,14451.176176142897
Hotel Nikko Bangkok,13.725009,100.57926,Hotel,301.0,5.0,128,5.0,7513.6463970591385,12006.767443512561
Novotel Bangkok Sukhumvit 20,13.733192,100.56442,Hotel,244.0,4.5,96,5.0,5514.720417361343,9317.199869568329
Trinity Silom Hotel,13.724717,100.53083,Hotel,104.0,3.0,28,3.0,2674.59395476909,3274.133866283249
The Quartier Boutique Hotel Sukhumvit 39 Bangkok by Compass Hospitality,13.745007,100.57614,Hotel,94.0,4.5,76,5.0,2460.678071375558,3869.3280925823356
Maitria Hotel Sukhumvit 18 Bangkok - A Chatrium Collection,13.733048,100.56257,Hotel,131.0,4.0,81,4.0,3052.3851759503955,4725.264935913921
Bangkok Hotel Lotus Sukhumvit 33,13.733255,100.56708,Hotel,224.0,4.0,55,4.0,5428.77180334776,8490.662643941536
Emporium Suites by Chatrium,13.730477,100.56844,Hotel,378.0,5.0,114,5.0,9486.028652759498,16142.917739556382
Grand Hyatt Erawan Bangkok,13.743609,100.540375,Hotel,380.0,5.0,99,5.0,8174.431822412722,15597.328212110904
Hyatt Regency Bangkok Sukhumvit,13.739765,100.55689,Hotel,273.0,5.0,100,5.0,6659.538372145354,10493.646484508265
Miami Hotel,13.739411,100.55733,Hotel,123.0,2.0,35,2.0,2802.4522142318456,3474.600507847721
Oakwood Suites Bangkok,13.72855,100.56874,Hotel,228.0,4.0,74,4.0,5722.684889490258,8314.189502167454
The Raweekanlaya Bangkok,13.766922,100.50591,Hotel,38.0,5.0,83,5.0,1253.648412039414,1643.7948087153327
Century Park Hotel,13.762118,100.54299,Hotel,380.0,4.0,55,4.0,9191.437185312381,13386.585396387583
Ramada by Wyndham Bangkok Sukhumvit 11,13.740817,100.5566,Hotel,183.0,4.0,48,4.0,4290.655564242556,7362.307918704387
Somerset Rama 9,13.761455,100.5669,Hotel,445.0,4.0,131,4.0,11715.690704932043,14734.214921740067
Grand Diamond Suites Hotel,13.750481,100.53851,Hotel,176.0,4.0,38,4.0,3860.7329099804765,6648.9340530888485
Pullman Bangkok Grande Sukhumvit,13.7389,100.56194,Hotel,325.0,5.0,69,5.0,7451.103362931984,13450.592813009842
The Phoenix Hotel Bangkok,13.723261,100.75368,Hotel,65.0,3.0,30,3.0,1510.9689565619265,2113.777003242391
Al Meroz Hotel Bangkok,13.746264,100.60374,Hotel,242.0,4.0,49,4.0,6229.261673370888,9210.217163492065
LUXX Langsuan,13.73562,100.54177,Hotel,50.0,4.0,42,4.0,1435.228468109373,1788.6708166004626
Happy 3 Hotel,13.748602,100.527695,Hotel,75.0,3.0,51,3.0,1885.9571415355476,2294.9722806453697
Citrus Sukhumvit 13 by Compass Hospitality,13.742749,100.55788,Hotel,79.0,4.0,58,4.0,2166.681177716515,2739.5294485338864
The Sukhothai Bangkok,13.723333,100.54096,Hotel,210.0,5.0,78,5.0,5505.979058812806,8036.8048543622845
LiT Bangkok Hotel & Residence,13.747988,100.52964,Hotel,79.0,4.0,46,4.0,2037.1188468601215,2962.8197695642984
Galleria 10 Sukhumvit by Compass Hospitality,13.736975,100.55734,Hotel,188.0,4.0,40,4.0,4465.670551650658,7070.816526536346
Nanda Heritage Hotel,13.76047,100.50614,Hotel,55.0,3.5,35,4.0,1372.6737131003006,2059.802799626966
HOMM Sukhumvit34 Bangkok,13.72393,100.57248,Hotel,148.0,4.0,49,4.0,3310.6449603005167,5242.255575398294
Patra Boutique Hotel,13.754353,100.53954,Bed and Breakfast,25.0,3.0,19,3.0,724.408311029472,832.2293329133676
SureStay Plus Hotel by Best Western Sukhumvit 2,13.739178,100.55215,Hotel,85.0,3.0,48,3.0,2359.0960097102834,2898.26836064461
PARKROYAL Suites Bangkok,13.739378,100.55372,Hotel,194.0,4.0,78,4.0,4930.686527422314,7023.092512659933
"Mandarin Oriental, Bangkok",13.723831,100.513954,Hotel,331.0,5.0,81,5.0,7639.079055884858,13607.554839764294
W22 by Burasari,13.741618,100.51298,Hotel,123.0,3.0,25,3.0,2821.9920864852866,3835.148865956407
New Siam Riverside Guest House,13.761994,100.492935,Bed and Breakfast,87.0,3.0,41,3.0,2284.521797243544,2793.108161424873
Somerset Maison Asoke,13.738393,100.56392,Hotel,125.0,4.0,35,4.0,3257.8276088218545,4390.918976036578
S Box Sukhumvit Hotel,13.733634,100.56624,Hotel,74.0,3.0,30,3.0,1962.9162784582013,2503.0489197337292
Courtyard by Marriott Bangkok,13.741141,100.54222,Hotel,235.0,4.0,78,4.0,6043.319621551765,8167.597080867776
Eleven Hotel Bangkok,13.742711,100.55649,Hotel,188.0,4.0,84,4.0,4843.68710478951,6535.0450408266715
"The Athenee Hotel, A Luxury Collection Hotel, Bangkok",13.741356,100.547775,Hotel,374.0,5.0,125,5.0,8296.209571830288,16211.444412984734
OYO 564 Nature Boutique Hotel,13.832125,100.55932,Hotel,89.0,2.5,40,3.0,2060.0149449930846,2738.904273301103
Montana Hotel & Residence,13.745951,100.59113,Bed and Breakfast,50.0,4.0,51,4.0,1495.643714351215,1867.8757535772245
Ruamchitt Plaza Hotel,13.739077,100.55799,Hotel,98.0,3.0,44,3.0,2487.776266864884,2842.629181921133
I Residence Hotel Sathorn,13.719983,100.53868,Hotel,82.0,3.0,51,3.0,1909.7313356516745,2785.4045589727775
Chateau de Sukhumvit,13.699199,100.59884,Hotel,65.0,3.0,58,3.0,1647.6196003178095,2159.443341602449
La Petite Salil Sukhumvit 8,13.735407,100.55585,Hotel,30.0,3.0,57,3.0,1036.27206065757,1005.6441579611521
Admiral Premier Bangkok,13.739233,100.56425,Hotel,112.0,4.0,52,4.0,2529.2015885842957,4014.9477010415453
ibis Bangkok Siam,13.746797,100.529015,Hotel,189.0,3.0,45,3.0,4165.4200257262255,5903.896995517252
Movenpick Residences Ekkamai Bangkok,13.739349,100.58889,Specialty Lodging,158.0,3.5,55,4.0,3872.733135415551,6093.975080825901
Centara Watergate Pavillion Hotel Bangkok,13.751406,100.54238,Hotel,281.0,4.0,65,4.0,6962.362902192199,11125.472874632853
Siamaze Hostel,13.786301,100.57024,Specialty Lodging,38.0,3.0,29,3.0,1039.9738034741495,1254.3645978755114
Legacy Suites Hotel Sukhumvit,13.734975,100.565544,Hotel,183.0,4.0,73,4.0,4290.200077257144,7120.5927009950365
Shama Yen-Akat Bangkok,13.71119,100.54323,Specialty Lodging,136.0,4.0,53,4.0,3504.2359412542855,4989.761250633557
Suvarnabhumi Ville Airport Hotel,13.712784,100.73979,Specialty Lodging,115.0,3.5,49,4.0,2720.4340563871874,3957.5146455189006
The Cotton Saladaeng Hotel,13.725954,100.54179,Hotel,56.0,3.5,10,4.0,1354.5378315801574,1901.3172482825623
Qiu Hotel Sukhumvit,13.70717,100.60111,Specialty Lodging,78.0,3.0,36,3.0,2105.00359535294,2514.224292136458
Jasmine Grande Residence,13.712308,100.58577,Specialty Lodging,410.0,4.0,51,4.0,9835.561517573904,15830.231994371112
Tongtara Hotel,13.699345,100.499985,Hotel,188.0,3.0,42,3.0,4069.3737799746823,5675.633537411453
UMA Residence,13.784193,100.51318,Specialty Lodging,135.0,3.0,24,3.0,3072.790405106837,4373.316884158348
Chern Hostel,13.751545,100.50317,Specialty Lodging,74.0,2.5,21,3.0,1697.7123361790066,2534.6024033908643
Grand President Bangkok,13.742609,100.556725,Hotel,290.0,4.0,80,4.0,6571.282231939505,10990.280819219968
Best Western Chatuchak,13.738059,100.44573,Hotel,192.0,4.0,50,4.0,5053.8552958587225,6551.817452993534
Ambassador Hotel Bangkok,13.742091,100.55662,Hotel,760.0,3.5,60,4.0,17009.649455349212,26295.62505670246
Public House Hotel,13.737843,100.56689,Hotel,79.0,0.0,69,0.0,2323.0342464857367,1439.02402452769
Centre Point Sukhumvit 10,13.736942,100.55718,Hotel,189.0,4.0,97,4.0,4940.475155235846,6982.217564793145
Centre Point Hotel Pratunam,13.751778,100.537224,Hotel,246.0,4.0,56,4.0,6221.1873169723285,9551.346196935614
Atelier Suites,13.768094,100.6228,Bed and Breakfast,98.0,3.5,40,4.0,2436.7262288587754,3476.0681692732037
lyf Sukhumvit 8 Bangkok,13.739288,100.556206,Specialty Lodging,196.0,3.0,76,3.0,4879.6327097664425,5972.796011843422
Alt Hotel Nana by UHG,13.735042,100.55209,Bed and Breakfast,66.0,3.0,60,3.0,1787.833935779296,2301.2259032753523
Novotel Bangkok Ploenchit Sukhumvit,13.742712,100.549614,Hotel,370.0,4.0,60,4.0,8103.136457135625,14669.462785199765
"Staybridge Suites Bangkok Thonglor, an IHG Hotel",13.728272,100.58046,Hotel,303.0,4.5,101,5.0,7696.71802321441,11530.670231163125
Jasmine City Hotel,13.736086,100.56306,Hotel,208.0,4.0,53,4.0,4739.917606937867,8193.612461207571
The Four Wings Hotel,13.725107,100.56915,Hotel,312.0,4.0,51,4.0,6534.52151136553,10848.509834590015
Asoke Residence Sukhumvit by UHG,13.746778,100.56193,Specialty Lodging,63.0,4.0,49,4.0,1721.0430192252354,2233.6670221053296
Hotel Icon Bangkok,13.739535,100.55203,Hotel,78.0,4.0,39,4.0,1825.3865447198532,2713.884219381238
VELA be Ratchathewi,13.752308,100.52672,Hotel,71.0,3.5,30,4.0,1930.238370623322,2608.7085762934125
Best Western Nada Don Mueang Airport Hotel,13.881104,100.60314,Hotel,235.0,0.0,38,0.0,6020.115151940344,5289.7575808976235
Amanta Hotel & Residence Sathorn,13.722294,100.546814,Hotel,66.0,3.0,71,3.0,2016.4761878124314,1936.974526020577
Four Seasons Hotel Bangkok at Chao Phraya River,13.712023,100.51002,Hotel,299.0,5.0,21,5.0,6639.205822615773,12706.982599151142
Siam Swana Hotel,13.75196,100.53009,Hotel,50.0,3.0,38,3.0,1219.2043550018318,1669.5438824887865
Tastoria Collection Hotel Sukhumvit Bangkok,13.733213,100.56406,Hotel,50.0,5.0,78,5.0,1647.2757736157505,2073.8246709048744
DoubleTree By Hilton Sukhumvit Bangkok,13.728004,100.57015,Hotel,177.0,0.0,87,0.0,4432.0619405261405,3322.8604419514663
Lamphu House,13.761741,100.49602,Bed and Breakfast,60.0,2.5,17,3.0,1590.0944549249796,1835.0177930987284
Klub Hotel,13.753475,100.53648,Hotel,105.0,3.5,48,4.0,2861.5144376532216,4016.7754026947496
Haven’t Met Bangkok Silom By Cross Collection,13.724193,100.52949,Hotel,72.0,3.5,33,4.0,1941.8151135260352,2621.9873937938232
Mercure Bangkok Sukhumvit 11,13.743185,100.55678,Hotel,232.0,4.0,53,4.0,5299.357071496155,8707.388185517944
FuramaXclusive Sathorn,13.723745,100.53115,Hotel,139.0,4.0,55,4.0,3368.040782905155,4783.660765366174
Bangkok Palace Hotel,13.7529,100.5472,Hotel,668.0,3.0,59,3.0,16547.64389238386,20207.407615128574
Sib Kao,13.7391,100.55996,Bed and Breakfast,28.0,3.0,44,3.0,835.3254651106788,924.1271274058872
Hilton Sukhumvit Bangkok,13.72851,100.56929,Hotel,280.0,5.0,99,5.0,6389.383382847447,11757.709238121486
Novotel Bangkok Bangna,13.673147,100.6466,Hotel,284.0,4.0,46,4.0,6703.751564733357,11497.570087491122
New Siam Palace View,13.7601,100.49329,Specialty Lodging,100.0,2.5,31,3.0,2626.0198431218623,3228.140545443651
Swissotel Bangkok Ratchada,13.776343,100.57393,Hotel,407.0,5.0,114,5.0,10240.294394005365,16221.695125170707
SHAN Villas Sukhumvit,13.70833,100.61214,Hotel,50.0,3.5,24,4.0,1270.3546345085629,1982.5823063640973
W Bangkok,13.722008,100.52889,Hotel,369.0,5.0,122,5.0,8260.569068277027,14860.331668807004
Citrus Suites Sukhumvit 6 by Compass Hospitality,13.738997,100.553604,Hotel,90.0,4.0,44,4.0,2332.2465143478066,3371.858837483983
Old Capital Bike Inn,13.757151,100.5047,Bed and Breakfast,10.0,3.0,39,3.0,477.9656000744951,314.2459327652611
Naga Residence,13.717843,100.50834,Specialty Lodging,68.0,3.0,36,3.0,1623.5431838868958,2286.547672337214
Conrad Bangkok,13.7387,100.5487,Hotel,391.0,5.0,99,5.0,9352.242622411535,16665.866505531096
Radisson Blu Plaza Bangkok,13.734616,100.56406,Hotel,290.0,5.0,65,5.0,7399.813758041416,11801.05953832087
Shanghai Mansion Bangkok,13.739689,100.511185,Hotel,69.0,4.0,56,4.0,1938.5918981328973,2557.0348027465384
Sukhon Hotel,13.756565,100.53381,Specialty Lodging,20.0,2.0,14,2.0,541.522703477132,560.2009060035697
Adelphi Forty-Nine,13.728256,100.5757,Hotel,86.0,4.0,56,4.0,2303.324005907532,3385.705359079743
Mariya Boutique Residence at Suvarnabhumi Airport,13.722002,100.77167,Hotel,38.0,3.0,55,3.0,1123.1267942245354,1264.7347856558401
Rosewood Bangkok,13.743244,100.549286,Hotel,158.0,5.0,119,5.0,4080.2024088469025,5963.637168694612
The Silver Palm Wellness Resort,13.739159,100.64708,Hotel,89.0,4.0,78,4.0,2554.897143790643,3101.476128254855
The Yard Hostel,13.776326,100.54188,Specialty Lodging,10.0,2.0,37,2.0,452.56427013223583,296.98401223240177
Casa Nithra,13.765863,100.50076,Hotel,50.0,4.0,46,4.0,1468.9829744333233,1779.1764013357931
Amaranta Hotel,13.778918,100.57628,Hotel,70.0,4.0,60,4.0,1879.8327263656533,2672.1911049476753
Bangkok Loft Inn,13.721873,100.491745,Hotel,32.0,3.0,46,3.0,985.4028629260276,1016.5406494309287
Centra By Centara Hotel Bangkok Phra Nakhon,13.786242,100.71222,Bed and Breakfast,180.0,3.0,77,3.0,4751.493878604626,6078.291670181791
"Hotel Muse Bangkok Langsuan, MGallery Collection",13.740189,100.54344,Hotel,174.0,5.0,75,5.0,4477.641316614227,6781.845878431922
Park Plaza Sukhumvit Bangkok,13.73479,100.56055,Hotel,95.0,4.0,46,4.0,2465.2254154650414,3391.2273035399376
iSanook Bangkok,13.732,100.522,Specialty Lodging,150.0,3.0,42,3.0,3842.003526445963,4943.664241684084
Ibis Styles Bangkok Sukhumvit 4,13.73935,100.55328,Hotel,133.0,3.0,43,3.0,3493.493178910242,4329.854301460078
Montien Riverside Hotel,13.688132,100.50782,Hotel,462.0,4.0,56,4.0,10332.318951966956,17118.80127589724
"Four Points By Sheraton Bangkok, Sukhumvit 15",13.739318,100.55855,Hotel,249.0,4.0,57,4.0,5768.203776779258,9229.433061830276
Miracle Grand Convention Hotel,13.876177,100.5757,Hotel,270.0,5.0,64,5.0,5902.199346584748,10057.153554670655
Citadines Sukhumvit 11 Bangkok,13.743922,100.55687,Hotel,127.0,2.0,52,2.0,3197.728587873634,3980.975432237573
"Bandara Suites Silom, Bangkok",13.725587,100.53819,Hotel,240.0,4.0,59,4.0,5172.406800969493,8888.112326775903
Rama Gardens Hotel Bangkok,13.859492,100.57115,Hotel,512.0,4.0,31,4.0,11807.628900030522,19711.65609645881
Oriental Residence Bangkok,13.738108,100.54636,Hotel,145.0,5.0,69,5.0,3483.260680369134,6098.900437991845
Hotel Once Bangkok,13.707039,100.50707,Hotel,43.0,3.5,46,4.0,1114.462155434718,1600.92413847794
Hope Land Hotel,13.713197,100.59351,Hotel,231.0,3.0,36,3.0,4851.376674654749,7554.715145001046
Citin Pratunam Hotel by Compass Hospitality,13.754489,100.53961,Hotel,126.0,3.0,40,3.0,3262.1124282910955,3853.1052863918435
SQ Boutique Hotel Managed by The Ascott,13.739746,100.56031,Hotel,39.0,4.0,52,4.0,1158.5026441771217,1427.826318914406
Mercure Bangkok Siam,13.746931,100.52904,Hotel,189.0,4.0,56,4.0,4572.666576325697,6650.23164013193
Tim Mansion,13.752476,100.504875,Bed and Breakfast,40.0,3.0,19,3.0,1059.0245824779345,1362.3394217392067
Triple Y Hotel,13.734972,100.52831,Hotel,102.0,3.0,41,3.0,2363.7457958647547,3486.3044161485177
Northgate Ratchayothin,13.83,100.56377,Specialty Lodging,146.0,3.0,39,3.0,3608.5396606183267,5143.357711902678
Mybed Ratchada,13.805582,100.57511,Bed and Breakfast,41.0,3.0,27,3.0,998.9864138361568,1349.1734127355928
The Metropole Bangkok,13.744239,100.58589,Specialty Lodging,114.0,5.0,42,5.0,2546.7379561138187,4681.979269761635
Ascott Embassy Sathorn Bangkok,13.722903,100.53568,Hotel,393.0,4.0,103,4.0,9501.96649917819,15029.233142755022
Golden Tulip Mandison Suites,13.729311,100.563614,Hotel,105.0,4.0,43,4.0,2675.156501705256,3606.7351583764876
S15 Sukhumvit Hotel,13.738796,100.55827,Hotel,72.0,4.0,29,4.0,1847.939972052836,2610.277224542425
"Holiday Inn Express Bangkok Siam, an IHG Hotel",13.747172,100.52778,Hotel,300.0,3.5,50,4.0,7736.516336321435,10519.535085065761
Maitria Mode Sukhumvit 15 Bangkok - A Chatrium Collection,13.745164,100.558685,Hotel,82.0,4.0,73,4.0,2265.942542861711,2930.6751347649115
Valia Hotel Bangkok,13.721167,100.56553,Hotel,279.0,5.0,0,5.0,6030.524279753038,12037.206661392564
Sala Arun,13.745144,100.49075,Bed and Breakfast,7.0,4.0,30,4.0,329.0251953695762,250.5334365283464
Vic3 Bangkok,13.774358,100.54231,Hotel,162.0,3.0,40,3.0,3697.0418029886014,5084.952608236604
"Holiday Inn Bangkok, an IHG Hotel",13.744563,100.54187,Hotel,379.0,4.0,70,4.0,8113.700003878683,14242.425212394694
Orchid Resort,13.719525,100.777664,Bed and Breakfast,18.0,3.0,43,3.0,606.9895778990766,581.5175989584202
Sivatel Bangkok,13.744522,100.54794,Hotel,75.0,5.0,51,5.0,2151.547081604704,2770.291184702335
MetroPoint Bangkok Hotel,13.76653,100.6326,Hotel,172.0,3.0,40,3.0,4384.88846191125,5976.19579351242
The Grand Sathorn,13.718829,100.517624,Hotel,79.0,4.0,35,4.0,2039.5448988778257,2945.5511212024644
Theatre Residence,13.753631,100.485954,Hotel,75.0,4.0,30,4.0,1808.04355121595,2704.5677119502793
Tai-Pan Hotel,13.738661,100.56284,Hotel,150.0,3.0,57,3.0,3451.219338682257,4891.395923710286
Hotel Tranz,13.756992,100.53445,Hotel,79.0,3.5,42,4.0,1876.9633207329352,2852.755109254846
The Sunreno Hotel,13.704287,100.50503,Hotel,79.0,3.0,79,3.0,2088.015069587865,2534.8996288350095
Pas Cher Hotel de Bangkok,13.719427,100.5175,Hotel,72.0,3.0,17,3.0,1734.7089647689031,2192.2381557880467
Ibis Bangkok Sukhumvit 4,13.738,100.5528,Hotel,200.0,3.0,40,3.0,4932.802802369409,6135.1480663671655
The Siam Heritage,13.729435,100.53037,Hotel,69.0,4.0,54,4.0,1913.8271669141875,2756.0922546071956
Bangkok Marriott Marquis Queen’s Park,13.730288,100.56572,Hotel,1388.0,5.0,105,5.0,30315.664788180708,56683.23946065168
DoubleTree by Hilton Bangkok Ploenchit,13.740337,100.55156,Hotel,251.0,4.0,64,4.0,6549.218546661232,9658.892480913244
Ascott Thonglor Bangkok,13.722873,100.58114,Hotel,451.0,4.0,80,4.0,11085.489136588705,16987.690813406036
Budacco,13.753538,100.539856,Bed and Breakfast,48.0,3.0,23,3.0,1225.9643320898392,1539.8819655813782
Park Plaza Bangkok Soi 18,13.732895,100.5628,Hotel,125.0,4.0,107,4.0,3482.5630908878,4917.183838707456
Josh Hotel,13.783611,100.54399,Specialty Lodging,53.0,2.5,42,3.0,1410.5788784674935,1849.3965522950323
VIE Hotel Bangkok,13.751559,100.53161,Hotel,154.0,5.0,72,5.0,3691.100020115073,6344.818919182425
True Siam Phayathai Hotel,13.759188,100.53651,Hotel,65.0,3.0,35,3.0,1618.7895032805175,2125.3892038298786
Maduzi Hotel,13.734444,100.56089,Hotel,40.0,4.0,53,4.0,1096.2832569051134,1514.9460388690761
Warm Window Silom - Hostel,13.723353,100.52331,Specialty Lodging,8.0,2.0,16,2.0,252.45883574283513,249.19350853729304
Kingston Suites,13.741634,100.55892,Hotel,60.0,4.0,25,4.0,1348.847972603794,2032.9316954401997
On8 Sukhumvit,13.7398,100.556,Hotel,40.0,3.0,40,3.0,1014.2934021775621,1408.600172062611
"Holiday Inn Bangkok Sukhumvit, an IHG hotel",13.73323,100.56541,Hotel,300.0,4.0,54,4.0,7584.11166659214,10394.6896507705
Grand Howard Hotel,13.701874,100.51614,Hotel,256.0,4.0,36,4.0,6210.654510882166,8786.66907992825
Heaven@4,13.742152,100.55295,Bed and Breakfast,21.0,3.0,30,3.0,647.4274774205584,676.4306331076139
Civic Horizon Hotel & Residence,13.720556,100.58467,Hotel,79.0,4.0,30,4.0,1786.1402175854585,2936.6847003257726
Arize Hotel Sukhumvit,13.728712,100.57061,Hotel,151.0,4.0,28,4.0,3547.7695107674353,5548.528518339333
Amora Neoluxe Hotel Bangkok,13.733828,100.56628,Bed and Breakfast,60.0,4.0,31,4.0,1508.044195721357,2289.1312945076934
Samran Place Hotel,13.754136,100.52888,Hotel,100.0,3.0,51,3.0,2344.252391905871,3451.407701023432
Pullman Bangkok King Power,13.758726,100.53742,Hotel,354.0,5.0,111,5.0,8406.440977107615,14086.423391312932
Buddy Lodge Hotel,13.758521,100.49855,Hotel,76.0,3.0,55,3.0,1969.715231999428,2495.4044093752564
ZAZZ Urban Bangkok,13.753749,100.57605,Hotel,48.0,3.0,54,3.0,1382.3705539497828,1568.7791453435439
Samsen Street Hotel,13.763563,100.501114,Hotel,46.0,0.0,16,0.0,1155.7810909882003,918.7162775219077
Kokotel Bangkok Sukhumvit 50,13.704777,100.599205,Hotel,65.0,3.0,11,3.0,1379.4145062379507,2170.630863623409
"SILQ Hotel And Residence, Managed by The Ascott Limited",13.725933,100.56783,Hotel,154.0,0.0,101,0.0,3962.6261097307743,3769.701469845294
Somerset Sukhumvit Thonglor Bangkok,13.729167,100.58064,Hotel,262.0,4.0,64,4.0,6422.0553958341125,9686.276967249856
Ibis Bangkok Sathorn,13.721614,100.54666,Hotel,213.0,3.0,47,3.0,5040.768011467021,7056.917547942978
De Arni Bangkok,13.72984,100.53027,Hotel,56.0,3.0,51,3.0,1658.8299939320327,1672.6853466846135
Prom Ratchada Hotel,13.770256,100.57075,Hotel,79.0,3.0,21,3.0,1963.7919466310607,2482.2479831991755
Indra Regent Hotel,13.752974,100.54119,Hotel,450.0,4.0,72,4.0,9740.76151904983,15779.216887483424
The Grand Fourwings Convention Hotel,13.754387,100.64618,Hotel,465.0,5.0,64,5.0,9831.267607195323,18147.418576427
Slumber Party Hostel Bangkok,13.74518,100.55166,Specialty Lodging,5.0,2.0,21,2.0,227.0773924826275,140.31343789555294
Mercure Bangkok Sukhumvit 24,13.729275,100.56944,Hotel,201.0,4.0,39,4.0,4272.946839276094,7059.037584129992
Paragon Inn,13.716727,100.73155,Hotel,36.0,3.0,26,3.0,981.3677900267171,1051.202878608982
"Silom Serene, Boutique Hotel",13.726297,100.53106,Hotel,86.0,4.0,36,4.0,2305.37994000459,2989.657910893432
Baan Wanglang Riverside,13.754746,100.48655,Hotel,31.0,4.0,71,4.0,1127.9114740419175,1092.9686396043783
Rembrandt Sukhumvit,13.731983,100.56367,Hotel,231.0,4.0,28,4.0,5225.769919709295,8898.286854364305
Crystal Suites Suvarnabhumi Airport,13.721473,100.730774,Bed and Breakfast,100.0,3.0,46,3.0,2596.4197097027586,3346.03892595573
Loy La Long Hotel,13.735476,100.51042,Bed and Breakfast,6.0,3.0,13,3.0,204.79271044258905,204.58373453149628
Bliston Suwan Park View,13.741889,100.545654,Hotel,152.0,4.0,69,4.0,3858.1385270895353,5683.995211139903
"The Westin Grande Sukhumvit, Bangkok",13.738399,100.5595,Hotel,362.0,5.0,92,5.0,9409.791558196552,15777.019767956583
At Ease Saladaeng by AETAS,13.726484,100.540565,Hotel,69.0,4.0,51,4.0,1785.3046415952604,2639.6433071292827
Wayha Hostel,13.89212,100.58073,Specialty Lodging,11.0,2.0,69,2.0,622.4896221151488,310.98745338930155
Le Meridien Bangkok,13.729702,100.53053,Hotel,282.0,5.0,100,5.0,7514.078718505957,11096.973413865619
Arawana Express Phromphong,13.729598,100.57198,Hotel,39.0,3.0,30,3.0,992.6884885020679,1361.15916329458
ASAI Bangkok Sathorn,13.721757,100.52611,Hotel,106.0,0.0,0,0.0,2156.7614894638377,2345.1599110485026
Movenpick BDMS Wellness Resort Bangkok,13.74767,100.547295,Hotel,293.0,5.0,78,5.0,6470.801060069774,12139.949310369295
Tara Place Bangkok,13.764447,100.49938,Hotel,68.0,2.0,26,2.0,1498.4081113606414,2059.9656834744696
JW Marriott Hotel Bangkok,13.742397,100.55182,Hotel,391.0,5.0,110,5.0,8597.051723454308,16277.641368970963
"Hotel Indigo Bangkok Wireless Road, an IHG Hotel",13.740175,100.54717,Hotel,192.0,4.5,60,5.0,4799.948595822343,7982.96809090108
Solo Express Sukhumvit 81,13.706468,100.60556,Hotel,68.0,3.0,21,3.0,1493.6307956090284,2146.7826351498047
Capella Bangkok,13.713078,100.51073,Hotel,101.0,0.0,123,0.0,2824.2946838739826,1919.924324519864
Lub d Bangkok Siam,13.746701,100.52877,Specialty Lodging,50.0,3.0,23,3.0,1126.99491378539,1539.1653371563732
Cape House,13.741042,100.54359,Hotel,117.0,4.0,58,4.0,3112.3207925099578,4595.7968342508475
FuramaXclusive Sukhumvit,13.746256,100.55121,Hotel,104.0,4.0,40,4.0,2433.2641264459326,4186.418765079438
Oakwood Residence Sukhumvit 24,13.728073,100.569214,Hotel,112.0,4.0,114,4.0,2892.961717713066,4269.362109828003
Matchbox Bangkok Hostel,13.73429,100.56754,Specialty Lodging,50.0,2.5,36,3.0,1389.2150560658804,1607.7397868648793
"Kantary House, Bangkok",13.761042,100.6394,Hotel,184.0,3.5,37,4.0,4471.721241793477,6873.93999252398
Dang Derm Khaosan,13.75946,100.49645,Hotel,70.0,3.0,33,3.0,1904.0513330883641,2352.567933685969
Rambuttri House,13.759796,100.49818,Hotel,47.0,2.0,16,2.0,1199.7775430780398,1380.530530490836
Sofitel Bangkok Sukhumvit,13.739372,100.55756,Hotel,345.0,5.0,84,5.0,8729.387557373528,13618.406740076975
Ibis Styles Bangkok Sukhumvit 50 Hotel,13.701988,100.58772,Hotel,171.0,3.5,42,4.0,3904.667873831253,6367.4711834968575
Maitria Hotel Rama 9 Bangkok - A Chatrium Collection,13.78836,100.51407,Hotel,230.0,4.0,70,4.0,5176.893249609561,8830.886915830353
Admiral Suites Bangkok,13.729146,100.56491,Hotel,62.0,4.0,35,4.0,1658.168991088353,2166.1496378289867
Renaissance Bangkok Ratchaprasong Hotel,13.74261,100.54199,Hotel,270.0,4.0,75,4.0,6881.664847426394,9838.891928248559
Chillax Resort,13.762395,100.50027,Hotel,103.0,4.0,54,4.0,2847.1128129544554,3845.937203026347
Woraburi Sukhumvit Hotel and Resort,13.735618,100.55278,Hotel,121.0,2.0,48,2.0,2921.943921460218,3590.085863493747
Majestic Suites,13.741977,100.553154,Hotel,55.0,3.0,48,3.0,1459.360321519762,1742.6803601160077
KV Mansion,13.705742,100.60415,Hotel,180.0,3.0,40,3.0,4525.731432993626,6254.355279060493
Waldorf Astoria Bangkok,13.7425,100.54063,Hotel,171.0,5.0,66,5.0,4045.516306502814,6891.350842582364
Aim House Bangkok Hotel,13.722296,100.50544,Bed and Breakfast,70.0,3.0,34,3.0,1902.9222999098693,2379.427782548189
Lilac Relax-Residence,13.723424,100.75386,Bed and Breakfast,10.0,3.0,23,3.0,376.5281813188592,351.1771977479763
"Staybridge Suites Bangkok Sukhumvit, an IHG Hotel",13.725258,100.56761,Hotel,411.0,0.0,63,0.0,9425.838807441442,8253.22009852847
Oriental Heritage Residence,13.726145,100.51602,Hotel,36.0,3.0,44,3.0,1090.2331786494606,1258.8446961857674
THEE Bangkok Hotel by TH District,13.732955,100.56389,Hotel,59.0,3.0,29,3.0,1572.6652565888674,1909.0738801052576
SC Park Hotel,13.767429,100.60275,Hotel,221.0,3.0,68,3.0,4884.486796221459,6528.433535817845
Citrus Sukhumvit 11 by Compass Hospitality,13.745706,100.55552,Hotel,136.0,4.0,55,4.0,3613.286502501106,5381.406998203886
The Fusion Suites Bangkok,13.740481,100.56114,Hotel,35.0,3.0,61,3.0,1122.9759828782555,1084.136379906351
The Pantip Hotel Ladprao Bangkok,13.767164,100.64668,Hotel,212.0,3.5,41,4.0,5333.444114036627,7730.34313240189
Best Western Sukhumvit 20,13.732139,100.56423,Hotel,78.0,4.0,34,4.0,1873.9752287943897,2948.7490037479456
Dewan Bangkok,13.760257,100.498375,Hotel,40.0,3.0,35,3.0,1182.2378168661617,1344.2360559076408
Praya Palazzo,13.765971,100.493515,Hotel,15.0,4.0,59,4.0,632.2818867060741,573.7068842871475
Fraser Suites Sukhumvit,13.745658,100.556496,Hotel,185.0,4.0,66,4.0,4078.350967199859,6685.533948125735
Suvarnabhumi Suite,13.722973,100.77448,Hotel,90.0,4.0,61,4.0,2549.2199506623692,3351.6349662715015
Bangkok Oasis Hotel,13.757621,100.52593,Specialty Lodging,49.0,2.0,24,2.0,1344.6067746447575,1406.669978819272
iCheck inn Mayfair Pratunam,13.755423,100.53674,Hotel,49.0,3.0,38,3.0,1313.6186309127336,1660.9597762679705
Aspen Suites Hotel Sukhumvit 2 Bangkok,13.737811,100.55204,Hotel,65.0,4.0,31,4.0,1674.5941997288069,2388.7186973843727
Zenniq,13.721131,100.49033,Hotel,49.0,3.0,15,3.0,1169.4661049053307,1585.0565123050733
I Sleep Silom Hostel,13.726044,100.52549,Specialty Lodging,12.0,2.0,22,2.0,385.68503294796164,357.6999981259637
At 115 By Rompo Mansion,13.71771,100.56561,Hotel,550.0,3.0,50,3.0,12156.676436117137,16785.571250719644
Marvin Suites,13.718387,100.52668,Specialty Lodging,64.0,3.0,32,3.0,1668.601338742039,2084.050410046762
Dynasty Grande Hotel,13.738905,100.55382,Hotel,150.0,4.0,45,4.0,3809.9103111641753,5501.037493563962
V One Pride Sukhumvit 22,13.722239,100.56474,Hotel,27.0,3.0,19,3.0,755.6382863526728,919.8317949912993
Furama Silom,13.725058,100.52533,Hotel,258.0,3.5,51,4.0,6462.896070534574,9171.394529127343
THA City Loft Hotel by TH District,13.726285,100.585266,Hotel,64.0,3.0,27,3.0,1462.2006860798238,2069.4741482792024
Le D’Tel Bangkok,13.719867,100.53859,Hotel,101.0,4.0,33,4.0,2460.3248803013116,3490.369855074872
Mad Monkey Bangkok,13.763195,100.49698,Specialty Lodging,135.0,3.0,24,3.0,3198.465007489861,4689.982274474362
Amanta Hotel and Residence Ratchada,13.765434,100.56773,Hotel,116.0,4.0,68,4.0,2952.6732347613042,4438.516594665252
At Hua Lamphong Hostel,13.737361,100.51675,Specialty Lodging,34.0,2.0,26,2.0,982.7525211083301,1062.0344843143341
Shama Sukhumvit Bangkok,13.74048,100.55239,Specialty Lodging,90.0,4.5,37,5.0,2179.5214474941426,3871.2740596418043
Hotel Verve,13.725475,100.57892,Hotel,324.0,3.0,33,3.0,6864.002703877166,11156.011690751793
Aphrodite Inn Bangkok,13.746375,100.54134,Hotel,30.0,3.0,44,3.0,857.793311863398,886.5579245503092
The Pattern Boutique Hotel,13.717985,100.50124,Specialty Lodging,12.0,3.0,37,3.0,477.9117990401384,406.5752937408204
S33 Compact Sukhumvit Hotel,13.73508,100.567276,Hotel,80.0,3.0,36,3.0,2044.9053566731416,2420.5962834895404
iCheck Inn Residences Sathorn,13.701197,100.53863,Hotel,52.0,3.5,41,4.0,1301.6991953172032,2018.620281146712
Bizotel Bangkok,13.759583,100.54053,Bed and Breakfast,30.0,3.0,41,3.0,837.8113528181349,927.4045120725959
Bed To Bangkok,13.806744,100.55747,Specialty Lodging,10.0,2.0,34,2.0,421.47660592562073,291.664510498872
Holiday Inn Express Bangkok Sukhumvit 11,13.744849,100.55691,Hotel,161.0,0.0,36,0.0,3488.7505152821204,3513.3880289574904
First House Bangkok Hotel,13.752592,100.53893,Hotel,70.0,3.0,26,3.0,1827.0475190073714,2311.2574222369303
"TwoThree, a Homely Hotel",13.737967,100.56389,Hotel,78.0,3.0,21,3.0,1705.2689252703271,2509.294662655826
The Tarntawan Hotel Surawong Bangkok,13.729088,100.530235,Hotel,75.0,3.0,63,3.0,1867.4928284396824,2321.5039004318023
"InterContinental Bangkok, an IHG Hotel",13.744892,100.5415,Hotel,381.0,5.0,69,5.0,9875.873700917518,15007.561566263294
Radisson Suites Bangkok Sukhumvit,13.743879,100.55744,Hotel,96.0,4.0,60,4.0,2445.3967994834297,3295.396892297525
Novotel Bangkok Sukhumvit 4,13.739277,100.55346,Hotel,185.0,4.0,52,4.0,4309.396091485802,7074.141974779761
Park Hyatt Bangkok,13.743934,100.5472,Hotel,222.0,5.0,89,5.0,5804.688829868438,9342.96733352054
Lohas Residences Sukhumvit,13.737276,100.55251,Hotel,144.0,4.0,46,4.0,3835.7854376968803,5179.379912643143
Anajak Bangkok,13.755902,100.5343,Specialty Lodging,40.0,4.0,50,4.0,1255.974794133642,1406.5680058180678
Riverfront Bangkok,13.67434,100.54271,Hotel,168.0,4.0,39,4.0,4209.979041016822,6352.545105444755
House of Phraya Jasaen,13.715056,100.5148,Specialty Lodging,32.0,2.0,37,2.0,906.6361689514382,1020.8807125233786
Centre Point Sukhumvit Thong Lo,13.731084,100.58199,Hotel,156.0,4.0,88,4.0,3668.2175116853828,5127.774641560786
Novotel Suites Bangkok Sukhumvit 39,13.736556,100.57346,Hotel,88.0,4.0,77,4.0,2536.590027148487,3405.0230718531984
Boutique Poo-Yai Lee @BP Place,13.796111,100.55394,Bed and Breakfast,140.0,3.0,26,3.0,3326.8584696858015,5046.099564270157
Grand Mercure Bangkok Asoke Residence,13.741437,100.56055,Hotel,75.0,5.0,65,5.0,2020.006300873105,3113.211921639612
Adelphi Suites Bangkok,13.739726,100.55602,Hotel,93.0,4.0,66,4.0,2285.376868407887,3319.3040797737117
"Holiday Inn Bangkok Silom, an IHG Hotel",13.722894,100.51968,Hotel,684.0,4.0,56,4.0,15652.686375103634,24383.391539161075
Royal President,13.741655,100.55891,Hotel,186.0,4.0,35,4.0,3925.5395992230815,6314.275471389789
Pho Place,13.738406,100.5117,Hotel,60.0,3.0,16,3.0,1423.562518284371,2147.531970362885
Aranta Airport Hotel,13.723484,100.7325,Bed and Breakfast,60.0,3.0,37,3.0,1412.2007760398074,1923.6356966697094
LiT BANGKOK Residence,13.7478,100.5294,Specialty Lodging,48.0,0.0,44,0.0,1218.139531118575,1088.8052927494334
Le Tada Parkview Hotel,13.761704,100.54025,Hotel,52.0,3.0,28,3.0,1215.676281998374,1641.489924418598
Sleepbox Sukhumvit 22,13.725787,100.56456,Specialty Lodging,45.0,2.0,25,2.0,1191.715091765131,1342.1938129510422
K Maison Boutique Hotel,13.758808,100.54116,Bed and Breakfast,21.0,3.0,44,3.0,730.9058452999486,720.7592579038351
CheQinn - Bangkok Chic Hostel,13.740095,100.55356,Specialty Lodging,47.0,2.0,40,2.0,1314.1766110724107,1498.2007494577094
The Raya Surawong - Bangkok,13.730398,100.53254,Bed and Breakfast,55.0,3.0,41,3.0,1609.3644383696517,1771.1858657229473
Kokotel Bangkok Surawong,13.727578,100.52436,Hotel,40.0,3.0,43,3.0,1114.538316112036,1226.8676610834054
River View Residence,13.734363,100.51187,Hotel,40.0,2.0,40,2.0,1062.862462163001,1094.62959672395
Centra by Centara Government Complex Hotel & Convention Centre Chaeng Watthana,13.883068,100.56724,Hotel,204.0,3.5,54,4.0,5256.196715895747,7066.770090181756
Lilit Bang Lumphu Hotel,13.761624,100.50127,Hotel,60.0,0.0,22,0.0,1394.6288613494967,1230.872212029707
Ascott Sathorn Bangkok,13.720944,100.52834,Hotel,177.0,4.5,42,5.0,4617.882358010218,7665.478599422502
Oakwood Studios Sukhumvit Bangkok,13.723852,100.57492,Hotel,177.0,4.0,75,4.0,3932.283001473197,6530.036960209104
Metz Pratunam,13.753764,100.5369,Bed and Breakfast,25.0,3.0,19,3.0,726.8137666460905,891.151585756688
Prince Theatre Heritage Stay,13.72065,100.51668,Hotel,26.0,3.0,35,3.0,730.1900183559362,818.3807094000564
Baan Vajra,13.722709,100.52067,Bed and Breakfast,16.0,3.0,53,3.0,698.4755476144513,510.49515282065255
Siam Eco Hostel,13.753019,100.531525,Specialty Lodging,16.0,2.0,11,2.0,419.14244326833784,414.721681139619
The Choice Residence,13.681925,100.47559,Bed and Breakfast,65.0,3.0,39,3.0,1843.9513787008589,1988.590721259925
Studio Nana by iCheck inn,13.740557,100.55673,Hotel,37.0,2.0,22,2.0,868.503458271633,1086.6131100072623
"Dusit Suites Hotel Ratchadamri, Bangkok",13.738761,100.541145,Hotel,97.0,4.0,35,4.0,2391.2565916439667,3456.8139654351735
Somerset Park Suanplu Bangkok,13.721532,100.53837,Hotel,235.0,4.0,53,4.0,6150.256283337615,8364.158538958462
Modena by Fraser Bangkok,13.720922,100.55986,Hotel,238.0,4.0,68,4.0,5739.463923348813,8806.39471212264
Bless Residence,13.733719,100.56836,Bed and Breakfast,54.0,4.0,33,4.0,1423.624794731615,2172.590989354118
Royal Suite Hotel Bangkok,13.748401,100.59789,Hotel,123.0,4.0,42,4.0,3097.9128861375143,4111.546661106555
12th Avenue Hotel Bangkok,13.734739,100.55783,Hotel,97.0,4.0,47,4.0,2516.6176250616004,3448.5678018294416
Shama Petchburi 47 Bangkok,13.748129,100.58482,Specialty Lodging,127.0,4.0,85,4.0,3389.362547553876,4639.186080270182
W Station,13.720279,100.49355,Bed and Breakfast,41.0,3.0,43,3.0,1251.998820000023,1329.6314372579388
Feung Nakorn Balcony Rooms & Cafe,13.748719,100.49822,Bed and Breakfast,41.0,0.0,38,0.0,1025.0943535321296,924.7742514820069
56 Surawong Hotel,13.729906,100.53105,Hotel,78.0,4.0,26,4.0,1811.4920574002467,2905.910330240264
Aloft Bangkok - Sukhumvit 11,13.74435,100.55653,Hotel,298.0,4.0,110,4.0,7964.747243882438,10491.177034391978
Ramada Plaza by Wyndham Bangkok Sukhumvit 48,13.709152,100.59895,Hotel,48.0,4.0,0,4.0,1173.66330813382,1845.4997677171077
Hotel Solo Sukhumvit 2,13.737616,100.551956,Hotel,42.0,4.0,32,4.0,1111.2440936118771,1476.9254888680928
Arcadia Suites Bangkok,13.746586,100.5496,Hotel,73.0,4.0,37,4.0,1905.4157652602385,2655.9608635442705
"Holiday Inn Express Bangkok Soi Soonvijai, an IHG Hotel",13.74773,100.584496,Hotel,190.0,3.0,52,3.0,4325.595198022712,6675.850692022805
Siam Champs Elyseesi Unique Hotel,13.755726,100.5032,Hotel,49.0,3.0,49,3.0,1285.3712688935175,1716.6274074115474
Siam Journey Guesthouse,13.755275,100.53142,Specialty Lodging,3.0,1.0,26,1.0,202.35154041544803,79.1740365641753
New Siam Guest House II,13.761373,100.493195,Hotel,170.0,2.5,18,3.0,3794.6360335881277,5602.670235253084
Aspira G Sukhumvit 33,13.735694,100.56805,Hotel,40.0,0.0,11,0.0,981.7240024408475,743.5762499973246
The Dawin Bangkok Hotel,13.738364,100.55318,Hotel,53.0,3.0,39,3.0,1293.8543719108584,1614.877347924799
The Orchid House 153,13.764496,100.49789,Bed and Breakfast,21.0,3.0,28,3.0,675.3678383672625,615.1409043777395
Oakwood Hotel & Residence Bangkok,13.717895,100.51645,Hotel,142.0,3.0,58,3.0,3874.3230158429246,4497.460582882835
The Bedrooms Boutique Hotel,13.709656,100.60218,Hotel,57.0,3.0,33,3.0,1509.07433122779,1701.7547162838277
BRB Hostel Bangkok Silom,13.72666,100.53111,Specialty Lodging,17.0,2.0,30,2.0,550.1861517622517,500.5209439327876
Bossotel Bangkok,13.721479,100.51585,Hotel,81.0,3.0,43,3.0,1978.8480488031685,2752.023190334521
Asok Montri Hostel,13.738632,100.560165,Specialty Lodging,7.0,2.0,7,2.0,205.96249496213883,211.8361978527792
QG Resort,13.726514,100.72897,Specialty Lodging,8.0,2.0,42,2.0,408.8215311252416,254.07427677039664
iCheck inn Residence Soi 2,13.7401,100.5519,Hotel,42.0,5.0,29,5.0,1187.8328141312122,1528.6795052159755
Pula Silom,13.729178,100.53493,Specialty Lodging,44.0,3.0,30,3.0,1244.0772318235977,1538.2632211000096
Atrium Boutique Resort Hotel,13.774195,100.57849,Hotel,139.0,3.0,44,3.0,3505.7154605275045,4404.177360381589
Shama Luxe Sukhumvit Bangkok,13.736863,100.57567,Specialty Lodging,52.0,4.0,17,4.0,1287.963573275198,1926.8449751680455
41 Suite Bangkok,13.729445,100.57241,Bed and Breakfast,34.0,3.0,34,3.0,932.6753090772901,1131.6018942053784
PanPan Hostel,13.723056,100.52302,Specialty Lodging,9.0,2.0,34,2.0,409.3325275045556,258.34585323184245
Sawasdee Sukhumvit Inn,13.725561,100.58008,Hotel,226.0,2.0,30,2.0,5667.106069351697,6585.246425589033
Barefeet Naturist Resort Bangkok,13.84201,100.61643,Specialty Lodging,5.0,3.0,41,3.0,343.465301158446,163.5949594508733
Ploen Pirom,13.733522,100.73748,Bed and Breakfast,13.0,3.0,27,3.0,410.47991160018375,413.3770722546069
Sunflower Place,13.72884,100.52631,Specialty Lodging,20.0,3.0,19,3.0,542.1705739356938,654.9704366511862
Bed Station Hostel,13.753137,100.531235,Specialty Lodging,82.0,2.0,14,2.0,2043.0302677580733,2350.0741548343162
Best Western Plus Sukhumvit 1,13.746572,100.55192,Hotel,145.0,5.0,40,5.0,3817.171655859584,5782.569606421029
Bally Suite Silom,13.728961,100.53529,Hotel,53.0,3.0,33,3.0,1283.0487548856752,1684.97620850994
Le Siam Hotel,13.726981,100.53384,Hotel,50.0,3.0,61,3.0,1480.2615742461826,1556.7670346247487
Citadines Sukhumvit 8 Bangkok,13.735779,100.55604,Hotel,130.0,3.0,61,3.0,3203.769060903962,4618.001290794385
Somerset Ekamai Bangkok,13.723122,100.58656,Specialty Lodging,262.0,4.0,78,4.0,6913.120868744654,10409.919063554229
Grand Business Inn,13.740461,100.5563,Hotel,127.0,3.0,33,3.0,3240.569581041038,4130.485574305018
Double DD House,13.788371,100.57478,Hotel,40.0,3.0,48,3.0,1229.2196018028735,1263.4975850202366
BelAire Bangkok Sukhumvit,13.744228,100.554596,Hotel,154.0,4.0,38,4.0,3639.917918198713,5918.339262492277
"Mayfair, Bangkok - Marriott Executive Apartments",13.738901,100.54269,Hotel,159.0,4.5,74,5.0,3883.4529679855177,6653.190760593816
Oh Bangkok Hostel,13.762927,100.50159,Specialty Lodging,40.0,2.0,8,2.0,852.1678433298434,1124.2772925002225
Villa De Pranakorn - Relais & Chateaux,13.749843,100.50408,Hotel,47.0,4.0,80,4.0,1591.8753184205593,1679.2721256550685
168 Hostel,13.74646,100.5234,Specialty Lodging,7.0,2.0,42,2.0,390.2556248265621,205.38498765566692
Daraya Boutique Hotel,13.748143,100.527214,Hotel,53.0,3.0,29,3.0,1474.9565688811203,1787.4963826714852
Hotel de Bangkok,13.757103,100.5429,Hotel,50.0,3.0,64,3.0,1593.4633067353127,1468.6950655178016
Adelphi Grande Sukhumvit,13.73017,100.57204,Hotel,167.0,4.0,41,4.0,4041.6447510033354,5996.865118165297
Hotel Mermaid Bangkok,13.734217,100.56538,Hotel,69.0,4.0,37,4.0,1844.8081205827452,2476.3986939961837
Arun Residence,13.744759,100.49128,Bed and Breakfast,7.0,3.0,42,3.0,414.5991258127493,207.97408970098348
The Park Nine Srinakarin,13.68359,100.64965,Hotel,54.0,4.0,49,4.0,1560.5536240260594,2163.99937786498
Bangkok Venice Suite,13.748822,100.54446,Hotel,55.0,0.0,15,0.0,1254.6122992743556,1334.0638896334285
Urbana Langsuan,13.739747,100.54386,Specialty Lodging,128.0,4.0,35,4.0,3031.6409129701924,4332.520632088153
Charlie House Pinklao,13.777933,100.4807,Hotel,28.0,3.0,31,3.0,754.0815051477643,919.2541295425494
U-Tiny Boutique Hotel SHA+,13.745826,100.70315,Hotel,38.0,3.0,76,3.0,1364.269093347073,1134.8143251909285
Bangkok Saran Poshtel,13.766021,100.49786,Hotel,30.0,3.0,16,3.0,785.7925106430189,1023.6087937107399
Oriental Smile Hotel,13.758357,100.53966,Hotel,14.0,2.0,41,2.0,516.8852196222304,427.0880032667633
Baan Chart,13.760312,100.49643,Bed and Breakfast,42.0,3.5,38,4.0,1173.5714209009386,1554.411712266931
Siamotif Boutique Hotel,13.766801,100.47391,Bed and Breakfast,9.0,3.0,32,3.0,368.4287463582454,287.92243178669537
Here Hostel,13.755493,100.50347,Specialty Lodging,10.0,2.5,28,3.0,381.06017560887915,332.40936565272693
Aspira Sukhumvit,13.740879,100.55567,Bed and Breakfast,50.0,2.0,22,2.0,1149.9335820784588,1493.9720659527127
Panini Residence,13.72062,100.75667,Specialty Lodging,51.0,3.0,30,3.0,1364.5084864312123,1605.5939700909505
Nappiness Hotel,13.758297,100.50428,Hotel,30.0,0.0,19,0.0,777.5002415357878,724.734534522634
"Holiday Inn Express Bangkok Sathorn, an IHG Hotel",13.724072,100.53082,Hotel,184.0,3.0,65,3.0,4737.963363855149,6041.280812047068
ibis Styles Bangkok Ratchada,13.777335,100.57432,Hotel,266.0,3.0,39,3.0,6685.899596082049,8794.662608531036
The Rose Residence,13.73057,100.53008,Bed and Breakfast,28.0,3.0,18,3.0,739.2885797490426,925.72138459199
Tango Vibrant Living Place,13.753786,100.54251,Specialty Lodging,70.0,3.0,38,3.0,1821.7900833722388,2232.4649016898006
Oakwood Residence Sukhumvit Thonglor,13.734747,100.58079,Hotel,67.0,4.0,38,4.0,1833.7678203728503,2441.087079345382
Urbana Sathorn,13.722994,100.53611,Hotel,1.0,4.0,37,4.0,230.7745749690808,36.05936493030839
Phranakorn-Nornlen Hotel,13.767768,100.50408,Hotel,31.0,3.0,19,3.0,725.4947591334617,1017.2184423956633
UPAR Hotels Sukhumvit 11 Nana,13.745726,100.55562,Hotel,28.0,3.0,38,3.0,887.9473667249007,950.0858657217218
Zenith Sukhumvit Hotel Bangkok,13.744838,100.55344,Hotel,160.0,3.5,37,4.0,3916.2926152100813,5817.656668725443
Aora Boutique Hotel Chatuchak,13.79459,100.54961,Specialty Lodging,7.0,2.0,24,2.0,305.87931470817693,220.89280758606742
The Coach Boutique Hotel,13.735271,100.56004,Specialty Lodging,92.0,0.0,76,0.0,2374.132604465491,2043.0028737611617
Noursabah Boutique Bed Bangkok,13.755861,100.5302,Bed and Breakfast,13.0,3.0,28,3.0,416.6331569454387,434.1561602636187
Nandha Hotel,13.735472,100.56814,Bed and Breakfast,27.0,2.0,32,2.0,710.9752432125443,746.4028317455502
Lamphu Tree House,13.760362,100.50251,Hotel,40.0,3.0,56,3.0,1204.0656897062975,1320.8604654821552
Home16 Hostel 16 Sukhumvit,13.729662,100.560905,Specialty Lodging,13.0,2.0,60,2.0,598.9617194016927,375.58941682901457
Heyyyy Bangkok,13.735992,100.63942,Specialty Lodging,6.0,2.0,34,2.0,326.11302044322485,166.8104909563918
DS67 Suites,13.716368,100.58975,Hotel,27.0,3.0,24,3.0,736.0090223745296,863.3499201520916
Tavee Guest House,13.772106,100.50468,Specialty Lodging,35.0,0.0,10,0.0,914.4546669459039,732.9342691532023
The Key Bangkok Hotel by Compass Hospitality,13.738901,100.55994,Hotel,43.0,3.0,40,3.0,1174.479279253484,1384.7552733602865
JL Bangkok,13.76236,100.64512,Bed and Breakfast,50.0,3.0,29,3.0,1282.5418759271008,1803.3639303969794
Kloem Hostel,13.75732,100.52219,Specialty Lodging,11.0,2.0,19,2.0,364.5603811128346,281.60812195575005
The Ember Hotel,13.760681,100.49782,Hotel,48.0,0.0,33,0.0,1222.775268054341,1007.7824978295613
The Mustang Blu,13.739127,100.514915,Hotel,10.0,0.0,0,0.0,231.1043350113937,236.29674254545162
United Residence,13.736274,100.58881,Specialty Lodging,42.0,3.0,50,3.0,1284.148805148559,1423.4522345488947
Buddy Boutique Inn,13.759337,100.495514,Bed and Breakfast,23.0,3.0,25,3.0,702.77953927507,812.4796583253316
Swana Bangkok Hotel,13.764723,100.50278,Hotel,55.0,3.0,33,3.0,1332.9860763339211,1883.4687959053188
The Unforgotten B&B,13.736824,100.514565,Bed and Breakfast,5.0,3.0,37,3.0,342.7776176295547,179.90412653489136
VX The Fifty Hostel,13.704697,100.59572,Specialty Lodging,14.0,2.0,27,2.0,454.4629334597077,391.27943908922845
The St. Regis Bangkok,13.739825,100.5399,Hotel,175.0,5.0,121,5.0,4376.037420479557,6727.5420721176415
The Fig Lobby,13.718253,100.56383,Hotel,68.0,4.0,73,4.0,1948.8961881554328,2329.394087813858
Bodega Hostels,13.739729,100.5653,Specialty Lodging,5.0,0.0,21,0.0,230.79879205661064,99.34335165504054
Blue Chang House,13.76402,100.50095,Specialty Lodging,25.0,2.0,31,2.0,719.4404381205615,684.7547489019793
New Siam III Guest House,13.759693,100.4976,Hotel,12.0,2.0,10,2.0,311.35300650931276,330.41115765594554
Paradiso Boutique Suites,13.73874,100.557465,Bed and Breakfast,20.0,3.0,19,3.0,569.6491292800832,609.01471001539
Baan Nampetch Hostel,13.761033,100.50157,Specialty Lodging,24.0,2.0,23,2.0,627.2783364865211,663.1113415592914
3Howw Hostel@Sukhumvit 21,13.740227,100.56204,Specialty Lodging,90.0,2.0,19,2.0,1947.5319488964626,2483.9909391542847
True Siam Rangnam Hotel,13.758248,100.53962,Hotel,42.0,3.0,44,3.0,1106.7201808006112,1505.6200392181745
Beat Hotel Bangkok,13.715041,100.5938,Hotel,54.0,3.0,19,3.0,1219.1012177652517,1597.2071105270252
Good One Poshtel & Cafe Bar,13.725509,100.52872,Specialty Lodging,33.0,2.0,19,2.0,786.8547282834127,876.2859422164337
Slumber Party Khao San Party Hostel,13.759046,100.496994,Bed and Breakfast,60.0,0.0,12,0.0,1460.2053870326085,1443.3279141976343
Citichic Hotel Sukhumvit by Compass Hospitality,13.744986,100.55812,Hotel,37.0,3.0,37,3.0,986.4413696811414,1305.7663775196318
Ad Lib Bangkok,13.745243,100.55224,Hotel,58.0,4.0,88,4.0,1766.583903442393,2171.6105611196253
Roof View Place,13.763316,100.501976,Hotel,30.0,2.0,20,2.0,846.0760837397835,852.095944194129
Villa Cha-Cha Banglumphu,13.760361,100.49741,Hotel,69.0,3.5,24,4.0,1685.2214004905436,2254.228292771466
Samsen Sam Place,13.765503,100.49823,Bed and Breakfast,40.0,3.0,20,3.0,1049.8597046503276,1446.4198686100276
Baan Tuk Din Hotel,13.755403,100.5017,Bed and Breakfast,17.0,0.0,0,0.0,354.6471890521385,399.7634448958686
Klean Residence Hotel,13.719946,100.49588,Hotel,68.0,3.0,14,3.0,1496.1567436984747,2443.2800468480323
Arawana Regency Park Sukhumvit,13.732117,100.56508,Hotel,119.0,0.0,44,0.0,2624.6194570162193,2630.8698604565216
The Royal ThaTien Village,13.744626,100.49215,Specialty Lodging,5.0,3.0,17,3.0,192.83498028912717,160.85334529763404
Cacha Art Hotel,13.754884,100.52672,Bed and Breakfast,35.0,3.0,32,3.0,904.1351543926721,1062.110394673148
PLOY Hostel,13.762681,100.50173,Specialty Lodging,4.0,2.0,44,2.0,319.4799260843108,118.52660049042346
V20 Boutique Hotel,13.804775,100.56447,Specialty Lodging,29.0,4.0,39,4.0,826.9910899505421,1006.4124479423433
Nine Design Place,13.748111,100.527214,Specialty Lodging,9.0,3.0,20,3.0,318.6463015241094,299.9580941293331
The Duchess Hotel and Residences,13.738553,100.54328,Hotel,165.0,4.0,72,4.0,3895.6859366966373,5567.5824381015145
Varmtel,13.72229,100.5101,Bed and Breakfast,14.0,3.0,28,3.0,454.28747641578605,463.573217603693
OYO 140 The Krungkasem Srikrung Hotel,13.73889,100.51555,Hotel,129.0,2.0,41,2.0,3138.0374280236924,3844.86898409587
Uncle Loy's Boutique House,13.753935,100.48438,Specialty Lodging,6.0,0.0,16,0.0,225.05797575927087,136.89467486535534
Siam Piman Hotel,13.796828,100.71474,Hotel,44.0,3.0,27,3.0,1028.7951362580518,1508.7831827969178
White Ivory Bed & Breakfast,13.718147,100.50095,Bed and Breakfast,12.0,2.5,46,3.0,526.4577169725216,389.9865206771147
Dynasty Inn,13.740984,100.55325,Hotel,50.0,3.0,29,3.0,1311.8962183777712,1594.189348766649
Volve Hotel Bangkok,13.726781,100.57806,Hotel,28.0,3.5,27,4.0,718.0551202068972,1042.3296243063662
Mam's House,13.762862,100.49861,Hotel,15.0,0.0,7,0.0,406.33504100539375,364.0755377690041
Chakrabongse Villas & Residences,13.743526,100.49277,Specialty Lodging,4.0,5.0,26,5.0,231.53461644092678,175.27591421797575
CHANN Bangkok Noi,13.761359,100.48708,Bed and Breakfast,22.0,3.5,53,4.0,750.6696454959645,823.1598863224202
Sleeplab Hostel,13.756289,100.53352,Specialty Lodging,26.0,2.0,33,2.0,738.5321064273836,777.688741713992
iCheck Inn Nana,13.741417,100.55581,Bed and Breakfast,47.0,3.0,27,3.0,1264.147156022546,1548.7472649994795
Royal Benja Hotel,13.74449,100.554726,Hotel,400.0,3.0,95,3.0,8872.536535341571,13181.985136229796
Amber Boutique Silom,13.725964,100.52475,Bed and Breakfast,19.0,3.0,44,3.0,646.1157917474729,586.9125120950538
Back Home Backpackers,13.76314,100.49944,Specialty Lodging,2.0,2.0,24,2.0,174.11697517643967,62.47326972648662
Parinda Hotel,13.735749,100.551636,Hotel,79.0,4.0,32,4.0,1936.6475560809774,2986.344477650662
Zensation The Residence,13.713953,100.52773,Bed and Breakfast,27.0,3.0,49,3.0,874.1769648098191,880.2915563910772
SSIP Boutique Dhevej Bangkok,13.770101,100.50534,Bed and Breakfast,12.0,3.0,44,3.0,527.4582564325774,371.6112798461135
Malaysia Hotel,13.721964,100.54415,Hotel,96.0,2.0,40,2.0,2166.927941676392,2626.1836793325797
1905 Heritage Corner,13.751717,100.4971,Bed and Breakfast,3.0,3.5,52,4.0,358.03694462202816,105.68145121837273
Ideal Hotel Pratunam,13.751865,100.538345,Bed and Breakfast,24.0,3.0,25,3.0,713.8908231638833,767.3654973240758
Baan Noppawong,13.7563,100.5005,Bed and Breakfast,7.0,3.0,26,3.0,322.6777457688296,246.6411752228707
Dusit Princess Srinakarin,13.69708,100.647934,Hotel,198.0,4.0,45,4.0,4717.057904345255,7707.090618389164
Siri Heritage Bangkok Hotel,13.755178,100.496574,Hotel,46.0,3.0,11,3.0,1104.613437091598,1497.9696096559953
The Inn Saladaeng,13.72734,100.53662,Hotel,38.0,3.0,27,3.0,939.6191167523264,1300.5627605157354
The Cube Hostel,13.727766,100.53646,Specialty Lodging,7.0,2.0,21,2.0,269.04932731514657,227.86703139416733
Cloud on Saladaeng,13.726322,100.53787,Hotel,28.0,2.0,25,2.0,767.7362849501477,860.8780680206094
Tropical Summer Cafe&Hostel,13.716976,100.52999,Hotel,6.0,2.0,64,2.0,447.9660244616945,174.92422376448812
Prime Hotel Central Station Bangkok,13.737569,100.51532,Hotel,150.0,0.0,46,0.0,3469.953772624843,3002.468152370304
Nappark Hostel At Khao San,13.760957,100.497375,Specialty Lodging,1.0,2.0,28,2.0,163.02508249569286,28.429164820914608
The Lol Elephant Hostel,13.760272,100.501564,Specialty Lodging,8.0,2.0,14,2.0,250.95916995918492,229.935616109454
Mybed Sathorn,13.717372,100.53959,Hotel,42.0,2.0,20,2.0,993.6837154326122,1214.6581001663599
Bourbon Street Boutique Hotel,13.722341,100.58458,Bed and Breakfast,24.0,3.0,36,3.0,703.5732096996778,764.844705987199
Ratchadamnoen Residence,13.757128,100.50291,Bed and Breakfast,12.0,3.0,33,3.0,465.5166011306844,399.3818132341215
"Marriott Executive Apartments Sathorn Vista, Bangkok",13.723124,100.53719,Hotel,186.0,5.0,92,5.0,4866.291115718551,7433.024150996882
Kessara Boutique Historic Hotel,13.725166,100.53133,Bed and Breakfast,7.0,0.0,29,0.0,303.3863368978854,136.7469540278338
Let's Zzz bangkok,13.764894,100.49734,Bed and Breakfast,32.0,2.5,32,3.0,834.9862105332525,1030.8694771562032
Refill Now!,13.734879,100.60085,Specialty Lodging,40.0,3.0,32,3.0,1084.4546483941563,1299.8186657052709
Suneta Hostel Khaosan,13.760603,100.49897,Specialty Lodging,3.0,2.0,23,2.0,186.17771197443932,84.17725403089624
Victory Park Hostel,13.76286,100.5408,Specialty Lodging,5.0,1.5,25,2.0,247.9490837782673,158.18597251523698
Loog Choob Homestay,13.758538,100.51496,Bed and Breakfast,4.0,3.0,26,3.0,233.4005226548117,125.03398106135103
Sakura Sky Residence,13.734697,100.56762,Hotel,64.0,3.0,22,3.0,1524.1986198962124,2117.484494969537
Yaks House,13.767601,100.48523,Bed and Breakfast,26.0,2.5,53,3.0,921.0983033183322,858.9706801817713
Norn Yaowarat Hostel,13.740962,100.51109,Specialty Lodging,25.0,3.0,29,3.0,717.6340760883721,784.0328278399741
Good Day Hostel,13.752258,100.537025,Specialty Lodging,6.0,2.0,21,2.0,263.65136872941207,176.87684459548294
The Sibling Hostel,13.723069,100.52309,Specialty Lodging,5.0,0.0,17,0.0,206.052190004256,112.74758466888105
Khaosan Art Hotel,13.762323,100.49393,Specialty Lodging,104.0,2.0,28,2.0,2344.767718457859,3035.272002494926
MovyLodge Hostel,13.753117,100.532585,Specialty Lodging,28.0,2.0,24,2.0,695.5159123554871,741.3700876008023
Focal Local Bed and Breakfast,13.715818,100.50175,Bed and Breakfast,9.0,2.0,24,2.0,323.48693140601466,285.1027026497618
MEET Green Apartment,13.843653,100.64567,Specialty Lodging,6.0,3.0,35,3.0,318.4062466567262,199.14215796429195
Niras Bankoc Cultural Hostel,13.752328,100.50449,Specialty Lodging,10.0,2.0,16,2.0,291.65841467955545,306.78279916439203
Bed One Block Hostel,13.75249,100.53126,Specialty Lodging,36.0,2.0,24,2.0,888.3173516810406,993.6993041476537
Issara by D Hostel,13.74858,100.49797,Specialty Lodging,20.0,2.0,24,2.0,554.5781117073874,570.0474438441744
Baan Glang Soi,13.719203,100.51712,Specialty Lodging,10.0,2.0,32,2.0,387.15289590375926,275.6612721072862
Petals Inn,13.738769,100.55306,Bed and Breakfast,28.0,3.0,34,3.0,867.760256845111,895.2914567985745
Barn & Bed Hostel,13.730329,100.57018,Specialty Lodging,38.0,2.0,22,2.0,903.362560661172,1050.5114819027017
Tian Tian Hostel,13.73957,100.51172,Specialty Lodging,10.0,2.0,26,2.0,362.93095170066545,279.78298607139214
Aetas Lumpini,13.72474,100.547134,Hotel,203.0,5.0,76,5.0,5463.7765484716965,8280.760576776229
Narawad Boutique Hotel,13.742611,100.56222,Bed and Breakfast,18.0,2.0,43,2.0,600.6735724471657,464.48152889198633
Penpark Place,13.765472,100.49761,Bed and Breakfast,45.0,2.0,19,2.0,1099.8260857729879,1367.1200241642339
Boxpackers Hostel,13.753332,100.5375,Specialty Lodging,32.0,2.0,20,2.0,901.6788589800112,910.3601276773361
Sabai Sathorn,13.723494,100.52751,Hotel,60.0,4.0,49,4.0,1714.8960470798295,2085.2454378460848
ZZZ Hostel,13.92407,100.598206,Specialty Lodging,20.0,2.0,18,2.0,573.2315972486836,565.6877811618751
Sawatdee Guesthouse The Original,13.771908,100.50354,Specialty Lodging,18.0,2.0,12,2.0,448.8115718846575,482.3478604291354
Korbua House,13.761651,100.49995,Hotel,24.0,3.0,30,3.0,664.9704734544032,836.4045891582132
Bed by City Surawong-Patpong,13.730863,100.52823,Hotel,20.0,3.0,19,3.0,577.8415874900983,622.5777074950837
Sabai Sabai at Sukhumvit Hotel,13.732611,100.59843,Hotel,42.0,3.0,25,3.0,1165.6999251279444,1420.2759002154082
Rich8 Hostel,13.763378,100.50236,Specialty Lodging,17.0,0.0,8,0.0,430.37277609553126,326.84180936560017
Yellow Ribbon Hills Executive Mansion,13.719973,100.53237,Hotel,80.0,3.0,26,3.0,1979.6636249991961,2460.6222097879504
Bangkok Bed and Bike,13.747336,100.49744,Specialty Lodging,10.0,2.0,30,2.0,388.7076630054834,297.66440923156244
Everyday Bangkok Hostel,13.731957,100.52686,Specialty Lodging,17.0,2.0,17,2.0,496.94528761295373,495.6536121445011
Ama Hostel Bangkok,13.74303,100.50374,Specialty Lodging,14.0,2.0,17,2.0,392.8134066927348,440.75315010516687
3Howw Hostel Khaosan,13.762782,100.50166,Specialty Lodging,7.0,2.0,9,2.0,208.2832692573484,201.8127398524148
Club Mahindra Mac Boutique Hotel,13.743633,100.55544,Hotel,74.0,3.0,46,3.0,1903.273453337361,2430.654977696342
C U Inn Bangkok,13.810577,100.55886,Specialty Lodging,48.0,3.0,41,3.0,1333.343268446148,1720.6378884064839
Aspira Skyy Sukhumvit 1,13.747345,100.55172,Hotel,50.0,4.0,49,4.0,1318.7579322885042,1778.2888647164955
Villa Mungkala,13.755381,100.50011,Bed and Breakfast,4.0,3.5,28,4.0,244.94145779946848,149.113356068195
"Marriott Executive Apartments Bangkok, Sukhumvit Thonglor",13.723398,100.58038,Hotel,74.0,5.0,93,5.0,2040.034778416709,3081.056589927547
Apartment45 Hostel,13.721315,100.54831,Bed and Breakfast,7.0,2.0,20,2.0,260.06427980442106,196.76759305506152
Maderla Guesthouse,13.720841,100.54708,Bed and Breakfast,6.0,3.0,28,3.0,294.35715187456594,174.21247669825567
Decor do hostel,13.721195,100.50773,Specialty Lodging,25.0,2.0,68,2.0,912.5162038038468,697.6949434901429
Eleven Avenue Suites,13.740992,100.55639,Hotel,20.0,3.0,35,3.0,628.3370362066504,687.9949556999596
Sourire @ Rattanakosin Island,13.757291,100.50349,Bed and Breakfast,38.0,3.0,31,3.0,962.6961401881675,1312.7235928548105
Qiss Residence By Bliston,13.71414,100.58664,Hotel,55.0,4.0,30,4.0,1269.4816304569918,1934.2173443985346
Royal Princess Larn Luang,13.757228,100.51311,Hotel,167.0,4.0,111,4.0,4767.977830581291,5688.520319484752
Baan 2459,13.739077,100.51058,Bed and Breakfast,4.0,3.0,26,3.0,219.47239751377134,128.22190336453264
The Oasis Hostel,13.762544,100.501366,Specialty Lodging,9.0,2.0,13,2.0,284.2707330222081,262.71175442239485
Somerset Riverside Bangkok,13.721349,100.51087,Hotel,52.0,4.0,85,4.0,1669.1875026780444,2066.7029277123283
Drop Inn Bangkok,13.736991,100.560524,Bed and Breakfast,25.0,2.0,33,2.0,751.1588273404882,783.0863865874366
Loftel 22 Hostel,13.733136,100.51434,Specialty Lodging,32.0,2.0,32,2.0,893.0734183101326,897.6987988046593
Inn A Day,13.745043,100.49116,Bed and Breakfast,11.0,3.0,26,3.0,383.1346519375643,368.5789336375553
Kama Bed & Breakfast Bangkok,13.70279,100.51378,Bed and Breakfast,16.0,2.0,31,2.0,528.75242564817,462.50358394754414
Siri Poshtel Bangkok,13.7531,100.49747,Specialty Lodging,21.0,3.0,13,3.0,593.1912832072516,736.4749883602784
Golden Tulip Sovereign Hotel Bangkok,13.753143,100.572,Hotel,448.0,4.0,34,4.0,11011.389728128022,15776.881225880166
Thanabhumi,13.760592,100.50137,Specialty Lodging,8.0,0.0,15,0.0,279.2029456036511,171.20453007079294
Pimthong Place,13.716879,100.78293,Specialty Lodging,2.0,0.0,11,0.0,99.05167234625114,39.553413848123085
Pinto Hostel,13.75304,100.53357,Specialty Lodging,3.0,2.0,11,2.0,127.12762962839909,93.93608218874667
Urban Hostel Bangkok,13.732848,100.51903,Specialty Lodging,12.0,1.0,39,1.0,505.1414370652379,305.1826139603952
The Cabochon Hotel,13.728891,100.57344,Hotel,8.0,4.0,39,4.0,378.36305081772747,273.2159906204021
Viva Garden Serviced Residence,13.698449,100.604126,Hotel,111.0,4.0,58,4.0,2586.103158044598,4009.288105714012
Triple Two Silom,13.725336,100.52414,Hotel,75.0,4.0,53,4.0,2077.8027141715434,2979.840321940917
Baan Dinso Hostel,13.75525,100.50107,Bed and Breakfast,10.0,2.5,25,3.0,376.97292172369254,317.58009678698954
Baan Sukhumvit Inn Soi 18,13.734287,100.56318,Bed and Breakfast,11.0,3.0,36,3.0,414.231519934271,376.57274457212185
Jam Hostel Bangkok,13.763418,100.49681,Bed and Breakfast,29.0,2.0,22,2.0,808.7636397366539,873.8599144665292
Chamberlain Hostel,13.721955,100.51837,Specialty Lodging,16.0,2.0,17,2.0,435.19432214935273,462.24965677819273
Sivalai Place,13.742836,100.477,Specialty Lodging,53.0,3.0,26,3.0,1234.4586204940344,1793.6614881210044
Cozy Bangkok Place Hostel,13.737488,100.520676,Specialty Lodging,20.0,0.0,12,0.0,481.4567743039248,389.8419112830166
Adamaz House,13.762129,100.49672,Hotel,26.0,2.0,33,2.0,796.4454342703748,718.4923260344186
Wallada Place hotel,13.766155,100.61892,Hotel,50.0,2.0,25,2.0,1313.2825605660119,1343.5316037999155
Benviar Tonson Residence,13.73854,100.54468,Specialty Lodging,27.0,3.0,42,3.0,808.1601020845005,869.8814033313282
Around the World Bed & Breakfast,13.736686,100.63219,Specialty Lodging,10.0,2.0,49,2.0,513.4789641118078,290.8509631892449
Silom One,13.728001,100.53402,Bed and Breakfast,10.0,3.0,36,3.0,425.9557643204439,325.6857059703038
Erawan House,13.762203,100.494354,Hotel,54.0,2.0,23,2.0,1437.518562862473,1488.0811178410106
Baan Sukhumvit Inn Soi 20,13.73484,100.56321,Bed and Breakfast,12.0,3.0,33,3.0,438.62281265431193,383.2616754930544
Hoppers Place Donmuang Hostel,13.915066,100.58588,Specialty Lodging,15.0,2.0,22,2.0,457.76683119371364,427.22081294941574
Tenface Bangkok,13.734747,100.55089,Hotel,79.0,4.0,55,4.0,2024.4473902440996,3055.832050241356
Sawasdee Hotel @ Sukhumvit Soi 8,13.735958,100.555855,Hotel,39.0,3.0,22,3.0,1049.762944985331,1253.3635156630398
Old Town Hostel Bangkok,13.730943,100.51556,Specialty Lodging,111.0,2.0,28,2.0,2656.6447948254977,3253.0127391122683
AETAS Residence,13.737817,100.54926,Hotel,214.0,5.0,74,5.0,4928.3051706626975,8922.278975228875
Ibis Styles Bangkok Khaosan Viengtai,13.759874,100.49753,Hotel,215.0,3.0,63,3.0,5629.4437328552995,6973.956956922326
PlayHaus Thonglor,13.73198,100.58173,Hotel,19.0,3.0,13,3.0,488.37648826901716,635.4032326374781
Chetuphon Gate,13.745075,100.4919,Specialty Lodging,9.0,3.0,20,3.0,318.0086401746954,291.7517075137597
Aetas Bangkok,13.738386,100.54939,Hotel,212.0,4.0,73,4.0,5597.137864603382,7598.72289916604
The Myth - Sud Sathorn,13.718122,100.51573,Specialty Lodging,20.0,3.0,37,3.0,674.4891687609954,657.285375522497
Cooper,13.723043,100.523,Specialty Lodging,15.0,2.0,17,2.0,407.78336885240464,421.2734725539295
Loftel Station Hostel,13.736731,100.51861,Specialty Lodging,20.0,2.5,38,3.0,689.5477901122545,696.2931227383161
Narai Hotel,13.72519,100.52442,Hotel,465.0,3.0,55,3.0,11080.23235774763,15820.978849270963
Chao Hostel,13.747292,100.527,Specialty Lodging,28.0,2.0,24,2.0,739.8539028149594,795.7109185451186
SLEEEP Bkk Silom,13.727973,100.53401,Specialty Lodging,44.0,0.0,70,0.0,1319.766469622261,825.1030932527516
Baan K Residence by Bliston,13.726661,100.54189,Hotel,28.0,3.0,27,3.0,817.8086725690488,946.5533318216013
De Phanakron,13.763001,100.50185,Specialty Lodging,13.0,0.0,0,0.0,294.6749709784609,260.6757732254733
Aurum The River Place,13.743711,100.492065,Hotel,12.0,3.5,38,4.0,493.1779871498967,475.3604472859503
Dusit Thani Bangkok,13.72842,100.53743,Hotel,517.0,5.0,44,5.0,12635.669133328001,20230.68251598391
ARUN Riverside Bangkok,13.744958,100.491234,Specialty Lodging,6.0,3.5,0,4.0,124.55024639198253,222.45973717087864
Hom Hostel & Cooking Club,13.742357,100.55288,Specialty Lodging,7.0,2.0,32,2.0,327.36132653448453,209.45205631028404
Abloom Exclusive Serviced Apartments,13.773363,100.54137,Hotel,91.0,4.0,47,4.0,2182.5605678455877,3286.1145798440875
J. No 14,13.723193,100.50302,Specialty Lodging,10.0,3.0,10,3.0,292.92773663482404,314.1042418667802
X9Hostel,13.754666,100.56611,Specialty Lodging,8.0,2.0,32,2.0,331.74805567026993,221.92227547976978
Conrad Bangkok Residences,13.739161,100.54759,Hotel,112.0,5.0,37,5.0,2745.591191854878,4714.767853082956
Silom City Hotel,13.725687,100.52255,Hotel,70.0,3.0,42,3.0,1888.2844814337047,2115.6051539902064
Urban House,13.726753,100.53797,Specialty Lodging,24.0,3.0,11,3.0,640.2820458888824,784.7796866769257
Talakkia Boutique Hotel,13.73263,100.51445,Hotel,28.0,3.0,45,3.0,876.9174102377856,856.3507846245633
Escape at Sathorn Terrace B&B,13.718465,100.51659,Bed and Breakfast,8.0,3.0,30,3.0,371.82270848147294,238.48651805166702
Vera Nidhra,13.722237,100.50333,Bed and Breakfast,10.0,3.0,33,3.0,431.3588527799342,340.72907289685844
V Residence Hotel and Serviced Apartment,13.7292,100.57122,Hotel,48.0,4.0,59,4.0,1305.999838765891,1648.4082245057973
Baan Silom Soi 3,13.725615,100.53119,Bed and Breakfast,16.0,2.0,36,2.0,555.9423368999245,415.2218436691062
d Hostel Bangkok,13.754668,100.49773,Specialty Lodging,80.0,2.0,22,2.0,2046.637607258833,2459.0965145616983
iCheck Inn Silom,13.724211,100.52134,Hotel,26.0,3.0,31,3.0,723.8387091408,901.2533538858918
Happy Monkey Hostel Bangkok,13.753358,100.53733,Specialty Lodging,53.0,2.0,12,2.0,1185.5541670468463,1566.3808139455234
Admire Thonburi,13.726178,100.49146,Bed and Breakfast,18.0,3.0,20,3.0,537.5099330355497,645.5433817849271
ONEDAY | Pause and Forward,13.726547,100.57022,Specialty Lodging,31.0,2.0,26,2.0,858.2320184602736,953.407039489119
The Blocks Hostel,13.738461,100.55762,Specialty Lodging,19.0,2.0,33,2.0,616.4752727325586,565.5759597453516
Chateau de Bangkok,13.739277,100.54984,Hotel,135.0,4.0,40,4.0,3096.344604028246,4756.548756729735
Olive Bangkok Hotel,13.687609,100.60716,Specialty Lodging,47.0,3.5,21,4.0,1140.6875151719778,1805.8007671395317
Once Again Hostel,13.752945,100.503426,Specialty Lodging,13.0,2.0,29,2.0,420.2950913769762,351.29779928940115
Khaosan Immjai,13.763819,100.49885,Specialty Lodging,4.0,2.0,23,2.0,234.7551962465546,123.28552203369065
S1 Hostel,13.72442,100.54798,Specialty Lodging,45.0,2.0,18,2.0,1124.5244528452786,1341.461522124836
Wendy House,13.748208,100.529755,Bed and Breakfast,38.0,3.0,32,3.0,1016.0898780887665,1310.1604109609316
Warm White Hostel,13.76164,100.49762,Specialty Lodging,8.0,2.0,29,2.0,351.8006096780895,208.14593216173094
Glad Bangkok Hostel Bar And Restaurant,13.719346,100.514175,Specialty Lodging,3.0,3.0,22,3.0,184.32235896475993,100.68761135509784
Time Sabai 134,13.760466,100.502335,Specialty Lodging,9.0,2.0,33,2.0,385.14772525338685,262.09142125652204
FAB House Bangkok,13.710922,100.52127,Specialty Lodging,10.0,2.0,34,2.0,400.74210437742454,305.69258382282885
Sivarin Guesthouse,13.76332,100.49912,Bed and Breakfast,8.0,0.0,3,0.0,199.97097862464844,159.62738379546218
Citadines Sukhumvit 16 Bangkok,13.7341,100.5609,Hotel,79.0,3.0,50,3.0,2212.3530929467147,2725.4607075344757
Diff Hostel,13.754307,100.5312,Specialty Lodging,11.0,2.0,29,2.0,442.3074802951845,304.8508619223616
Baan Chantra,13.764569,100.49983,Bed and Breakfast,6.0,2.0,29,2.0,284.3936977131984,181.82621521458495
Arun Old Town Hostel,13.739255,100.48473,Specialty Lodging,7.0,2.0,11,2.0,223.70692181884465,205.9948256306511
Bussaba Bangkok,13.781917,100.74877,Hotel,14.0,3.0,33,3.0,512.8830602852656,499.6467261777017
Metro Pratunam Boutique Hotel,13.750583,100.5466,Specialty Lodging,23.0,3.0,31,3.0,696.8468098456514,795.4712357716704
ThongLor Travellers Hostel and Cafe,13.723931,100.57917,Specialty Lodging,4.0,2.0,26,2.0,230.2554666070281,115.69422651150549
OYO 688 Bangkok Hub Hostel,13.717387,100.51471,Specialty Lodging,30.0,0.0,17,0.0,778.7785818922815,715.5012080766055
The Printing House Poshtel,13.754835,100.50134,Specialty Lodging,15.0,2.0,50,2.0,593.5004420023322,424.8759532557937
Baan Pra Nond Bed & Breakfast,13.717841,100.51968,Bed and Breakfast,9.0,3.0,27,3.0,348.78009995151456,294.0549419804886
Atlanta Hotel,13.737272,100.55196,Hotel,59.0,0.0,12,0.0,1525.6576358251923,1139.2594976761377
In a Box Hostel,13.755979,100.53364,Specialty Lodging,3.0,2.0,16,2.0,169.47857723037848,90.73500312886082
WH Hostel,13.736118,100.55172,Specialty Lodging,4.0,2.0,15,2.0,166.048680480003,115.56263152534564
Golden Mountain Hostel,13.752531,100.50546,Specialty Lodging,7.0,2.0,18,2.0,238.1298854522018,187.06499298410085
The Twelve Hotel,13.739105,100.57722,Hotel,12.0,3.0,40,3.0,533.8268528956174,441.6139662563653
The Tawana Bangkok,13.729493,100.52994,Hotel,265.0,3.0,47,3.0,6690.083763044803,8517.040112088314
Shanti Lodge,13.771955,100.503456,Specialty Lodging,20.0,2.0,21,2.0,526.2784431592697,577.4765847663554
39 Boulevard Executive Residence,13.737921,100.56983,Bed and Breakfast,12.0,4.0,37,4.0,482.1235444309981,460.92880617865853
iSanook Hostel,13.732317,100.52183,Specialty Lodging,11.0,3.0,47,3.0,504.6957160969796,343.855107433598
Mile Map Hostel,13.723837,100.52305,Specialty Lodging,17.0,0.0,19,0.0,490.00628231102735,396.7415897865446
Luk Hostel,13.739722,100.50785,Specialty Lodging,19.0,2.0,19,2.0,538.6361734647387,554.4591079493262
Smile Society,13.727844,100.53055,Specialty Lodging,12.0,2.0,30,2.0,414.7997350595374,330.1463796091602
iCheck inn Sukhumvit 19,13.739662,100.5594,Bed and Breakfast,21.0,3.0,14,3.0,503.91550556868907,651.3385734816121
GM Suites,13.746931,100.55366,Specialty Lodging,51.0,4.0,24,4.0,1225.7465574978412,1988.200063311247
The Asadang,13.7483,100.49647,Bed and Breakfast,9.0,3.0,25,3.0,360.8127041406424,267.7456916592466
Baron Zotel Bangkok,13.77453,100.64056,Hotel,50.0,3.0,42,3.0,1224.0281843046923,1586.5496514863244
Baan Tepa,13.769051,100.50775,Specialty Lodging,8.0,2.0,24,2.0,294.3061589398673,234.09739260162164
"Crowne Plaza Bangkok Lumpini Park, an IHG Hotel",13.72981,100.535164,Hotel,243.0,5.0,46,5.0,5600.839164878222,10574.942531898181
Navalai River Resort,13.763083,100.49435,Specialty Lodging,74.0,3.0,55,3.0,2148.905600807365,2382.231755170558
Ibrik Resort by the River,13.75367,100.48655,Hotel,3.0,3.0,34,3.0,253.6979444406153,97.65905684043729
Grand Sukhumvit Hotel Bangkok,13.738858,100.554596,Hotel,386.0,5.0,80,5.0,8811.63881414268,16621.182385878954
The Period Pratunam,13.753317,100.53745,Bed and Breakfast,14.0,3.0,28,3.0,459.2570319334824,476.7000659940793
Green House BKK,13.760155,100.49702,Specialty Lodging,75.0,2.0,14,2.0,1666.8862146821991,1923.7441789281836
Samsen 360 Hostel,13.762877,100.50095,Specialty Lodging,4.0,2.0,27,2.0,234.16628352635306,119.93446735535059
Radisson Suites Bangkok Sukhumvit,13.74342,100.55764,Hotel,54.0,4.0,36,4.0,1317.8266637624895,1941.8926295763397
Khaosan Baan Thai,13.76571,100.49671,Hotel,10.0,0.0,9,0.0,254.27450725972923,196.55429263207355
Dharasom's Colonial House,13.72135,100.75589,Hotel,9.0,3.0,26,3.0,343.50570196003457,295.6687030046273
Maven Stylish Hotel Bangkok,13.747525,100.57165,Hotel,70.0,4.0,48,4.0,1826.5773572303196,2526.52395789592
Yim Bangkok Hostel,13.778469,100.57441,Specialty Lodging,15.0,2.0,37,2.0,583.4224483785512,449.2372249821588
SiRi Oriental Bangkok Hotel,13.754463,100.49785,Bed and Breakfast,36.0,3.0,18,3.0,879.2686359003575,1291.3222301452838
Klassique Sukhumvit,13.710659,100.5982,Hotel,45.0,3.0,28,3.0,1205.1440135238647,1491.7928383892229
The Little Pig Sukhumvit,13.716557,100.58876,Specialty Lodging,22.0,1.0,23,1.0,577.8395538886112,564.4079821586897
BS Court Boutique Residence,13.722292,100.53672,Hotel,30.0,2.0,18,2.0,791.2471023854207,890.536413565016
Patumwan House,13.748991,100.5293,Bed and Breakfast,20.0,3.0,45,3.0,736.2924743003358,665.0819559838635
The Star of Sathorn Hotel,13.719972,100.49586,Bed and Breakfast,15.0,3.5,52,4.0,616.4255042652703,544.4434382475728
House23,13.73342,100.57581,Specialty Lodging,4.0,2.0,21,2.0,195.04650568282085,111.31384159329876
The Seven Luck,13.753498,100.51585,Specialty Lodging,46.0,2.0,30,2.0,1095.9642019348291,1255.0659203168727
Lullaby Inn,13.725563,100.525536,Hotel,20.0,3.0,36,3.0,632.066079596448,674.5275795624767
Pa Prank,13.75317,100.497375,Specialty Lodging,4.0,2.0,23,2.0,218.23601410282953,112.7380951098492
Udee Bangkok Hostel,13.792865,100.545586,Specialty Lodging,10.0,0.0,18,0.0,301.31175049365635,185.97933505104623
Holy Sheet Hostel,13.716228,100.58849,Specialty Lodging,5.0,3.0,24,3.0,234.7173753950438,149.88059942389083
Sam's Lodge,13.739228,100.56011,Bed and Breakfast,18.0,2.0,31,2.0,612.2530442445014,544.8961223498211
Cazz Cafe And Hostel,13.712179,100.59564,Specialty Lodging,30.0,2.0,41,2.0,842.3870077662249,781.1196745281504
Better Bed Hostel,13.716166,100.58842,Specialty Lodging,5.0,0.0,13,0.0,177.20313943427837,104.91951716921406
Nitan Hostel Khaosan,13.75873,100.49712,Specialty Lodging,24.0,2.0,10,2.0,542.4402834347712,622.1448021875991
K.T. Guest House,13.782039,100.566536,Bed and Breakfast,38.0,0.0,13,0.0,924.5748116581719,802.1870956945877
DPM Bangkok Hostel Bar & Travel,13.759502,100.49705,Specialty Lodging,5.0,2.0,18,2.0,206.89122661605333,149.97715201294042
BB House,13.762262,100.49406,Bed and Breakfast,30.0,0.0,1,0.0,615.0055453839943,631.0513646993033
De Talak Hostel,13.720729,100.561676,Specialty Lodging,23.0,2.0,18,2.0,644.0128145393346,698.2524103766473
Littlest Guesthouse,13.723353,100.536156,Specialty Lodging,3.0,0.0,12,0.0,131.13222923731286,72.3514937578363
Sabye Club Hostel,13.762385,100.50218,Specialty Lodging,4.0,2.0,22,2.0,209.47382817753822,107.71180950876543
Home Mali Hostel,13.75384,100.53065,Specialty Lodging,4.0,2.0,17,2.0,185.37010762493145,102.85827320033316
Legacy Express Hotel Sukhumvit,13.742711,100.55123,Hotel,63.0,3.0,40,3.0,1637.6736125311313,2113.5539308314655
Yim Yam Hostel & Garden,13.753178,100.53253,Specialty Lodging,21.0,2.0,21,2.0,549.530347644547,639.2222461301928
Nest by Sangob,13.769292,100.58092,Bed and Breakfast,21.0,3.0,21,3.0,558.7428912369011,653.7809230592694
Lamurr Hostel,13.729516,100.57214,Specialty Lodging,34.0,2.0,22,2.0,940.7591331173405,1086.3772105764451
Siam Plug In Boutique Hostel,13.719529,100.50651,Specialty Lodging,36.0,2.0,30,2.0,1059.5459176217414,993.2793987720614
Paragon One Residence,13.757705,100.50294,Specialty Lodging,27.0,2.0,22,2.0,706.1129767324533,791.4520905853127
Imm Fusion Sukhumvit,13.706836,100.599915,Hotel,168.0,3.0,26,3.0,3740.4637642697367,5886.487888012656
Suphan Lake Hometel,13.762028,100.73169,Hotel,36.0,3.0,34,3.0,1036.3733758880878,1119.2682501391032
Diamond House,13.762747,100.49877,Hotel,22.0,3.0,30,3.0,643.8793749492304,747.6900849917532
Hotel Vista Express,13.751857,100.53903,Hotel,77.0,3.0,38,3.0,1748.513509579836,2399.4569468146597
Be My Guest Bed and Breakfast,13.78517,100.57386,Bed and Breakfast,4.0,0.0,9,0.0,131.8247876959199,99.0110548919697
Thrive The Hostel Bangkok,13.731197,100.53259,Specialty Lodging,27.0,0.0,7,0.0,668.6614190609124,638.0698031289963
Gaam Hotel,13.753637,100.5374,Specialty Lodging,25.0,3.0,30,3.0,678.168939599384,785.5241576073491
Baan Udom Hostel,13.73526,100.51152,Bed and Breakfast,17.0,2.5,22,3.0,487.7770675494718,560.7688325458546
Cafe Ice Residences,13.723547,100.53131,Bed and Breakfast,9.0,3.0,45,3.0,453.0998207612791,282.05663604589927
Analog Hostel,13.734459,100.56601,Specialty Lodging,44.0,2.0,22,2.0,997.7752916615551,1232.6960393399754
Everyday Bangkok Hostel @Khaosan,13.762718,100.5015,Specialty Lodging,25.0,2.0,16,2.0,685.7571027539135,716.8429511014062
Amarin Inn,13.762323,100.49686,Hotel,22.0,2.0,10,2.0,564.5085112835238,580.006584603132
Vista Residence Bangkok,13.747986,100.52721,Bed and Breakfast,15.0,0.0,22,0.0,429.6507605442513,343.0366181287806
Once In Bangkok Guesthouse,13.76022,100.5031,Bed and Breakfast,8.0,2.0,19,2.0,277.8367098246413,220.40529888451448
Innspire Bangkok,13.755522,100.499725,Hotel,8.0,0.0,29,0.0,319.25673136996556,159.56545945281036
The Bhuthorn,13.751643,100.49754,Bed and Breakfast,3.0,2.0,30,2.0,246.26784108574606,80.66592411339289
P & R Residence,13.728466,100.51445,Bed and Breakfast,20.0,3.0,38,3.0,654.7764255209614,635.9871147344362
Link Corner Hostel Bangkok,13.755725,100.54213,Specialty Lodging,15.0,2.0,21,2.0,467.2403332980713,474.3621255057747
Bharani Hostel,13.738349,100.56374,Specialty Lodging,30.0,2.0,24,2.0,771.5340814014412,859.4925321179373
Siamese Views Lodge,13.75759,100.50039,Bed and Breakfast,12.0,3.0,9,3.0,305.1938195102362,393.981098512667
Feel At Home Backpackers,13.761779,100.497894,Specialty Lodging,40.0,0.0,9,0.0,1028.476294616588,786.7304029338061
Gems Park,13.88323,100.60008,Specialty Lodging,30.0,0.0,38,0.0,815.4871073625375,668.7575914318141
24 Samsen Heritage House,13.788096,100.515144,Specialty Lodging,4.0,2.0,19,2.0,184.52278965860967,108.35010264852014
2W Bed & Breakfast,13.738742,100.51456,Specialty Lodging,9.0,2.0,29,2.0,346.751988650189,271.2960325229774
Sakul House,13.759222,100.498436,Bed and Breakfast,31.0,3.0,35,3.0,810.672454963015,980.6221706129924
Bangkok Patio,13.773637,100.54074,Hotel,44.0,4.0,31,4.0,1092.406982036976,1591.1365692185116
Local Time Bangkok,13.72088,100.58346,Specialty Lodging,7.0,2.0,9,2.0,213.06162538607526,204.59238872395457
LiveitUp Bangkok,13.735662,100.56209,Specialty Lodging,19.0,2.0,19,2.0,577.558040288628,514.548785275738
Baanbangkok chinatown,13.741558,100.51485,Specialty Lodging,5.0,2.0,24,2.0,256.97419273341853,152.12064236336144
Nap At Pan,13.723086,100.52307,Specialty Lodging,24.0,2.0,28,2.0,684.069732158786,636.2555377755598
OYO 434 Boonsiri Place Hotel,13.754803,100.49727,Hotel,48.0,3.0,36,3.0,1222.2844889581907,1546.1552223916783
Mascot Hostel Bangkok,13.753012,100.54539,Specialty Lodging,12.0,2.0,40,2.0,493.96221254699856,353.33085532445784
MonkeyNap hostel,13.72718,100.5731,Specialty Lodging,110.0,2.0,28,2.0,2665.1158295086498,3196.5559618438233
Ricco Residence,13.746158,100.67493,Specialty Lodging,45.0,3.0,32,3.0,1201.717947756787,1563.2031397997782
Bangkok Story,13.776266,100.52066,Specialty Lodging,1.0,2.0,30,2.0,202.5191183214192,27.59512201520013
PIER 49 Hostel,13.72736,100.57542,Specialty Lodging,5.0,2.0,35,2.0,296.19552440457016,151.62268918172785
CityPoint Hotel,13.735507,100.56081,Hotel,54.0,3.0,42,3.0,1578.2276541618198,1685.4182269482428
HQ Hostel Silom,13.726385,100.53103,Specialty Lodging,70.0,2.0,21,2.0,1777.5755811152414,2161.2767356072786
Napa Place Bed & Breakfast,13.73704,100.55959,Bed and Breakfast,12.0,0.0,35,0.0,470.70756927938646,233.1912238485779
Rat Bed & Breakfast,13.69575,100.38657,Bed and Breakfast,15.0,0.0,5,0.0,362.1871158506103,352.8337395412877
Park Saladaeng,13.727043,100.5381,Bed and Breakfast,12.0,0.0,20,0.0,413.25616471565775,255.5996122342839
Counting Stars Hostel,13.761708,100.49894,Specialty Lodging,7.0,2.0,17,2.0,264.4501952287461,189.35539545548423
Padi Madi Guest House,13.725075,100.57771,Bed and Breakfast,12.0,3.0,40,3.0,499.3882992453121,415.80379273045213
Thara House,13.762542,100.49432,Bed and Breakfast,36.0,2.0,16,2.0,809.2337455352454,1095.078679435387
Our Secret Base - Hostel,13.739028,100.5133,Specialty Lodging,4.0,2.0,15,2.0,170.520803430508,122.41421204124231
Hotel De Moc,13.761594,100.50448,Hotel,92.0,0.0,38,0.0,2301.7329281817256,2117.535534224802
Bangrak House No 32,13.718775,100.51565,Bed and Breakfast,14.0,0.0,17,0.0,419.59702742992044,308.7880930521542
ETZzz Hostel,13.724315,100.548325,Specialty Lodging,60.0,2.0,24,2.0,1413.747084658866,1527.3249176355127
U-Place,13.763726,100.503815,Bed and Breakfast,47.0,3.0,27,3.0,1123.2833750815994,1442.613084081145
Samsen 5 Lodge,13.764388,100.500015,Bed and Breakfast,3.0,0.0,10,0.0,126.81457724501614,70.509379912244
Golden Pearl Residences,13.691295,100.61745,Specialty Lodging,79.0,3.0,45,3.0,2206.255382625028,2637.506873383819
Home Hug Hostel,13.75333,100.544014,Specialty Lodging,36.0,0.0,27,0.0,970.3759287491399,803.2417949540563
Bangkok Publishing Residence,13.756488,100.5079,Bed and Breakfast,8.0,3.5,45,4.0,427.0482368377234,273.18657563193074
Seven Hotel,13.7345,100.56596,Hotel,6.0,4.0,26,4.0,256.6183736853065,222.2410878353998
Get Sleep Bangkok Surawong,13.728054,100.52586,Hotel,29.0,3.0,51,3.0,999.4651656189494,989.9556870417415
All In One Hostel,13.760499,100.49765,Specialty Lodging,7.0,2.0,16,2.0,243.67749886550348,221.13709468142548
At Smile House,13.756024,100.49789,Bed and Breakfast,31.0,2.0,26,2.0,794.037085028911,943.6132063989302
The Quarter Bangkok Ratchathewi,13.753366,100.53209,Specialty Lodging,3.0,2.0,17,2.0,155.53922366863785,82.84148295162345
RetrOasis Hotel,13.734368,100.56472,Hotel,63.0,3.0,33,3.0,1650.195322250781,2167.5847681030473
Ploen Bangkok Hostel,13.760575,100.49778,Specialty Lodging,14.0,2.0,22,2.0,466.76974719647035,424.56207686754465
D&N Hostel,13.753123,100.49956,Specialty Lodging,11.0,2.0,17,2.0,318.3311266349353,325.66789541422924
Viman Guesthouse,13.763452,100.497826,Bed and Breakfast,12.0,2.0,28,2.0,447.3999128686329,320.7361645537051
The Local Surasak Hostel,13.715556,100.520836,Specialty Lodging,16.0,2.0,16,2.0,484.7729590025303,482.74861771752404
Arawana Express Chinatown,13.742694,100.50811,Hotel,34.0,3.0,20,3.0,891.3946049525108,1029.147607778752
Petchyindee Kingdom,13.767819,100.48006,Specialty Lodging,24.0,2.0,24,2.0,680.132778899807,625.3818972107728
Silom Studios,13.727396,100.53712,Bed and Breakfast,10.0,3.0,24,3.0,330.7269332112886,364.36373741217875
The Promenade Hotel,13.738157,100.55589,Hotel,40.0,3.0,39,3.0,1187.9674612392485,1376.3395685740168
Arom d Hostel,13.745755,100.49146,Specialty Lodging,8.0,3.0,18,3.0,267.2521613304623,283.42939425196937
Coop Hostel,13.754413,100.53989,Specialty Lodging,5.0,3.0,22,3.0,233.46872037929896,181.30214561350306
The Emerald Hotel Bangkok,13.775396,100.57274,Hotel,625.0,4.0,65,4.0,14474.333722200974,22575.371593600637
Bangkok Christian Guest House,13.727226,100.534325,Hotel,30.0,0.0,13,0.0,679.1707826517226,636.8285659189042
M Gray Hostel & Cafe,13.720332,100.49539,Specialty Lodging,36.0,2.0,42,2.0,967.2661881837402,1088.1455867999475
Canalis Suvarnabhumi Airport Hotel,13.722006,100.77492,Hotel,226.0,4.0,66,4.0,5703.509500504615,7528.182539411628
LemonSeed Rooms,13.751827,100.535355,Bed and Breakfast,15.0,3.0,37,3.0,515.7714056639354,490.1781675488446
Home Base Hostel,13.722639,100.52412,Specialty Lodging,36.0,0.0,17,0.0,929.9775260056667,736.8104348575017
Sri-Ayuttaya Guest House,13.771945,100.50376,Bed and Breakfast,18.0,0.0,3,0.0,412.7077582263437,368.60600696941543
GN Luxury Hostel,13.751104,100.54113,Specialty Lodging,24.0,2.0,43,2.0,754.449140068866,707.5763546792887
Baan Chanasongkram,13.761763,100.49445,Specialty Lodging,16.0,2.0,21,2.0,465.29612821906403,436.2393005117169
K.C. Guest House,13.724492,100.48268,Bed and Breakfast,21.0,0.0,10,0.0,550.5026053964234,446.99581650406526
Chang Siam Inn,13.75269,100.54631,Bed and Breakfast,28.0,2.0,22,2.0,713.1237100771365,802.7015107378651
Bally Suite Sukhumvit,13.72889,100.56441,Hotel,78.0,3.0,51,3.0,2040.481529154334,2387.007543833807
Residence Rajtaevee,13.751222,100.53553,Hotel,76.0,3.0,27,3.0,1852.123776988453,2677.200053259877
Ratana Boutique Hostel & Cafe Bangkok,13.756843,100.506966,Specialty Lodging,16.0,2.0,23,2.0,495.93574037202967,448.4532427754915
WYH Boutique and Design Hostel,13.723783,100.49562,Specialty Lodging,2.0,2.0,34,2.0,250.5554116568887,57.57511594244451
128 Room and Massage,13.741673,100.5535,Hotel,4.0,3.0,37,3.0,274.60022154381284,140.19794173408513
Chan Cha La 99 Hostel,13.696172,100.60663,Specialty Lodging,6.0,2.0,9,2.0,175.50810212196384,190.29142401045775
Ramada by Wyndham Ten Ekamai Residences,13.728923,100.59017,Specialty Lodging,81.0,3.0,49,3.0,2131.754606994042,2854.2835464310538
Some Rest Hostel,13.759628,100.49703,Specialty Lodging,16.0,2.0,27,2.0,519.0164307785549,448.25193363704557
63 Bangkok Boutique Residence Ekamai,13.719644,100.585175,Bed and Breakfast,42.0,2.0,28,2.0,1127.5183517269938,1324.2374227972268
Airtel Hideaway Ari,13.783587,100.55211,Bed and Breakfast,10.0,3.0,50,3.0,522.5272693070483,320.68145060005355
Natee Hostel,13.753293,100.537,Specialty Lodging,12.0,2.0,20,2.0,350.42474885407927,360.24969057257283
OYO 532 Meet & Meet Hostel,13.76165,100.49765,Specialty Lodging,84.0,0.0,1,0.0,1990.8403896997097,1832.532109635182
The Moonite Boutique Hotel,13.747386,100.54857,Bed and Breakfast,41.0,3.0,28,3.0,1069.1904474854202,1232.2564492282368
Baan Manusarn,13.77025,100.50269,Specialty Lodging,4.0,3.0,14,3.0,167.9622309636709,138.69653471648132
Baan Saladaeng Boutique Guesthouse,13.726411,100.53738,Bed and Breakfast,10.0,3.0,22,3.0,336.261756856797,310.8591338710267
VeryThai House,13.762222,100.49729,Bed and Breakfast,21.0,3.0,23,3.0,634.6553551579996,708.305811179937
Pridi Hostel,13.721044,100.59592,Specialty Lodging,6.0,0.0,32,0.0,304.50226655177187,136.93178062942764
Ramada by Wyndham Bangkok Chaophya Park,13.795678,100.57357,Hotel,402.0,4.0,61,4.0,9785.795367738889,15041.434122210881
SimpleTo Sleep Hostel,13.79548,100.54981,Specialty Lodging,6.0,2.0,14,2.0,217.01770385216543,160.45502254064235
China Town Hotel,13.739425,100.51135,Hotel,75.0,3.0,32,3.0,1813.1757210645787,2657.7419370567154
The Manhattan Sukhumvit Bangkok,13.739756,100.5583,Hotel,198.0,3.0,39,3.0,5068.388914124681,6068.387481535369
The Cube Sathorn Boutique Hotel,13.715596,100.52077,Specialty Lodging,8.0,2.0,55,2.0,445.6657846080849,242.59266334877913
My Hotel Pratunam,13.755169,100.53825,Hotel,71.0,3.0,34,3.0,1955.6058839322006,2208.1658664360602
New Suanmali Hotel,13.751019,100.51002,Specialty Lodging,60.0,3.0,20,3.0,1452.169682729018,2007.6681142979828
CNC Residence,13.734384,100.56833,Hotel,153.0,0.0,20,0.0,3576.622907041654,3254.0920555900675
Kasayapi,13.738124,100.485466,Specialty Lodging,8.0,3.0,17,3.0,286.75229612215645,273.0998957304259
Baan Boran,13.754741,100.49669,Bed and Breakfast,10.0,2.0,22,2.0,362.6479067227915,287.8760227288889
FU House Hostel,13.735258,100.55595,Specialty Lodging,5.0,2.0,32,2.0,305.11829698485843,146.22232880459873
Laksameenarai Guesthouse,13.758872,100.49564,Specialty Lodging,5.0,2.0,17,2.0,203.47930074671646,141.9511580951939
Silom Art Hostel,13.726081,100.52494,Specialty Lodging,40.0,2.0,15,2.0,1013.4557736862512,1251.7499821783051
Yolo Bangkok Boutique Hotel,13.746865,100.5589,Specialty Lodging,14.0,3.0,14,3.0,419.4136142519008,482.95970305984343
Chic Hostel,13.737703,100.51537,Specialty Lodging,50.0,2.0,16,2.0,1148.1225410305758,1583.3812638432157
Siam Square House,13.747792,100.529305,Hotel,14.0,3.0,24,3.0,440.36729941385806,436.82794732900845
OYO 1084 Guyasuka Ratchada,13.780236,100.57731,Specialty Lodging,60.0,0.0,10,0.0,1316.491807243776,1396.5716117379686
24 Inn Hotel,13.73096,100.5701,Hotel,30.0,2.5,25,3.0,886.6576863685345,975.2835212979198
The Mini R Ratchada,13.773092,100.57321,Bed and Breakfast,29.0,3.0,50,3.0,1009.446141025858,997.9872904212974
Asia Herb Association Spa Auberge Eugenia,13.743023,100.56925,Hotel,7.0,4.0,39,4.0,381.75918411196733,285.61813318931684
JeeSnail Guesthouse,13.69613,100.49607,Bed and Breakfast,10.0,3.0,33,3.0,376.83562797751165,337.00165423659763
Plubpla Hostel,13.727671,100.52657,Specialty Lodging,7.0,2.0,17,2.0,254.20892069556623,218.52192948494266
Sidare Bed And Breakfast,13.787487,100.57546,Specialty Lodging,12.0,3.0,26,3.0,434.80875390838276,403.58939154894284
